"id",name,alternativeNames,municipio,departamentoId,departamento,latitud,longitud
"91001",Leticia - Amazonas,,Leticia,91,Amazonas,-4.2152778,-69.9405556
"91540",Puerto Nariño - Amazonas,,Puerto Nariño,91,Amazonas,-3.7702778,-70.3830556
"05002",Abejorral - Antioquia,,Abejorral,5,Antioquia,5.75,-75.4166667
"05004",Abriaquí - Antioquia,,Abriaquí,5,Antioquia,6.6666667,-76.0833333
"05021",Alejandria - Antioquia,,Alejandria,5,Antioquia,6.3666667,-75.0833333
"05030",Amagá - Antioquia,,Amagá,5,Antioquia,6.05,-75.7
"05031",Amalfi - Antioquia,,Amalfi,5,Antioquia,7,-74.9166667
"05034",Andes - Antioquia,,Andes,5,Antioquia,5.5833333,-75.9166667
"05036",Angelópolis - Antioquia,,Angelópolis,5,Antioquia,6.1333333,-75.7
"05038",Angostura - Antioquia,,Angostura,5,Antioquia,6.8666667,-75.3333333
"05040",Anorí - Antioquia,,Anorí,5,Antioquia,7.1666667,-75.0833333
"05044",Anzá - Antioquia,,Anzá,5,Antioquia,6.3333333,-75.9166667
"05045",Apartadó - Antioquia,,Apartadó,5,Antioquia,7.8855556,-76.6347222
"05051",Arboletes - Antioquia,,Arboletes,5,Antioquia,8.5,-76.4166667
"05055",Argelia - Antioquia,,Argelia,5,Antioquia,5.7341667,-75.1463889
"05059",Armenia - Antioquia,,Armenia,5,Antioquia,6.1666667,-75.8333333
"05079",Barbosa - Antioquia,,Barbosa,5,Antioquia,6.45,-75.3333333
"05088",Bello - Antioquia,,Bello,5,Antioquia,6.3388889,-75.5622222
"05086",Belmira - Antioquia,,Belmira,5,Antioquia,6.6666667,-75.6666667
"05091",Betania - Antioquia,,Betania,5,Antioquia,5.75,-75.9666667
"05093",Betulia - Antioquia,,Betulia,5,Antioquia,6.2,-75.9166667
"05101",Bolívar - Antioquia,,Bolívar,5,Antioquia,5.8333333,-76
"05107",Briceño - Antioquia,,Briceño,5,Antioquia,7.1122222,-75.5541667
"05113",Burítica - Antioquia,,Burítica,5,Antioquia,6.75,-75.9166667
"05125",Caicedo - Antioquia,,Caicedo,5,Antioquia,6.45,-75.9666667
"05129",Caldas - Antioquia,,Caldas,5,Antioquia,6.0833333,-75.6333333
"05134",Campamento - Antioquia,,Campamento,5,Antioquia,7.0833333,-75.25
"05142",Caracolí - Antioquia,,Caracolí,5,Antioquia,6.4119444,-74.7605556
"05145",Caramanta - Antioquia,,Caramanta,5,Antioquia,5.5833333,-75.5833333
"05147",Carepa - Antioquia,,Carepa,5,Antioquia,7.7663889,-76.6611111
"05148",Carmen de Viboral - Antioquia,,Carmen de Viboral,5,Antioquia,6085,-75.3386111
"05150",Carolina - Antioquia,,Carolina,5,Antioquia,6.8,-75.25
"05154",Caucasia - Antioquia,,Caucasia,5,Antioquia,7.9166667,-75
"05138",Cañasgordas - Antioquia,,Cañasgordas,5,Antioquia,6.75,-76
"05172",Chigorodó - Antioquia,,Chigorodó,5,Antioquia,7.6666667,-76.6666667
"05190",Cisneros - Antioquia,,Cisneros,5,Antioquia,6.5833333,-75.0833333
"05197",Cocorná - Antioquia,,Cocorná,5,Antioquia,6,-75
"05206",Concepción - Antioquia,,Concepción,5,Antioquia,6.4166667,-75.25
"05209",Concordia - Antioquia,,Concordia,5,Antioquia,6.0833333,-75.9166667
"05212",Copacabana - Antioquia,,Copacabana,5,Antioquia,6.3333333,-75.5
"05120",Cáceres - Antioquia,,Cáceres,5,Antioquia,7.6666667,-75.3333333
"05234",Dabeiba - Antioquia,,Dabeiba,5,Antioquia,7,-76.25
"05237",Don Matías - Antioquia,,Don Matías,5,Antioquia,6.5,-75.3333333
"05240",Ebéjico - Antioquia,,Ebéjico,5,Antioquia,6.3333333,-75.75
"05250",El Bagre - Antioquia,,El Bagre,5,Antioquia,7.5941667,-74.8119444
"05264",Entrerríos - Antioquia,,Entrerríos,5,Antioquia,6.5833333,-75.5833333
"05266",Envigado - Antioquia,,Envigado,5,Antioquia,6.1730556,-75.5638889
"05282",Fredonia - Antioquia,,Fredonia,5,Antioquia,5.9166667,-75.6666667
"05284",Frontino - Antioquia,,Frontino,5,Antioquia,6.6666667,-76.3333333
"05306",Giraldo - Antioquia,,Giraldo,5,Antioquia,6.6666667,-75.9166667
"05308",Girardota - Antioquia,,Girardota,5,Antioquia,6.4166667,-75.45
"05313",Granada - Antioquia,,Granada,5,Antioquia,6.1666667,-75.1333333
"05315",Guadalupe - Antioquia,,Guadalupe,5,Antioquia,6.8175,-75.2441667
"05318",Guarne - Antioquia,,Guarne,5,Antioquia,6.25,-75.4166667
"05321",Guatapé - Antioquia,,Guatapé,5,Antioquia,6.25,-75.1666667
"05310",Gómez Plata - Antioquia,,Gómez Plata,5,Antioquia,6.75,-75.8333333
"05347",Heliconia - Antioquia,,Heliconia,5,Antioquia,6.2333333,-75.75
"05353",Hispania - Antioquia,,Hispania,5,Antioquia,5.8025,-75.9116667
"05360",Itagüí - Antioquia,,Itagüí,5,Antioquia,6.1719444,-75.6113889
"05361",Ituango - Antioquia,,Ituango,5,Antioquia,7.25,-76
"05364",Jardín - Antioquia,,Jardín,5,Antioquia,5.5833333,-75.8333333
"05368",Jericó - Antioquia,,Jericó,5,Antioquia,5.75,-75.75
"05376",La Ceja - Antioquia,,La Ceja,5,Antioquia,6,-75.4166667
"05380",La Estrella - Antioquia,,La Estrella,5,Antioquia,6.1666667,-75.6666667
"05390",La Pintada - Antioquia,,La Pintada,5,Antioquia,5.75,-75.6
"05400",La Unión - Antioquia,,La Unión,5,Antioquia,5.9166667,-75.3333333
"05411",Liborina - Antioquia,,Liborina,5,Antioquia,6.75,-75.75
"05425",Maceo - Antioquia,,Maceo,5,Antioquia,6.5,-74.75
"05440",Marinilla - Antioquia,,Marinilla,5,Antioquia,6.2,-75.3
"05001",Medellín - Antioquia,,Medellín,5,Antioquia,6.2913889,-75.5361111
"05467",Montebello - Antioquia,,Montebello,5,Antioquia,5.9166667,-75.5
"05475",Murindó - Antioquia,,Murindó,5,Antioquia,6.8,-76.8
"05480",Mutatá - Antioquia,,Mutatá,5,Antioquia,7.3333333,-76.5
"05483",Nariño - Antioquia,,Nariño,5,Antioquia,5.6,-75.1666667
"05495",Nechí - Antioquia,,Nechí,5,Antioquia,8.0963889,-74.7758333
"05490",Necoclí - Antioquia,,Necoclí,5,Antioquia,8.4238889,-76.7911111
"05501",Olaya - Antioquia,,Olaya,5,Antioquia,6.6666667,-75.75
"05543",Peque - Antioquia,,Peque,5,Antioquia,7,-75.8333333
"05541",Peñol - Antioquia,,Peñol,5,Antioquia,6.25,-75.25
"05576",Pueblorrico - Antioquia,,Pueblorrico,5,Antioquia,5.8,-75.85
"05579",Puerto Berrío - Antioquia,,Puerto Berrío,5,Antioquia,6.4166667,-74.5
"05585",Puerto Nare - Antioquia,,Puerto Nare,5,Antioquia,6.1916667,-74.5866667
"05591",Puerto Triunfo - Antioquia,,Puerto Triunfo,5,Antioquia,5.8708333,-74.6455556
"05604",Remedios - Antioquia,,Remedios,5,Antioquia,7,-74.4166667
"05607",Retiro - Antioquia,,Retiro,5,Antioquia,6.0833333,-75.5
"05615",Ríonegro - Antioquia,,Ríonegro,5,Antioquia,6.1666667,-75.4166667
"05628",Sabanalarga - Antioquia,,Sabanalarga,5,Antioquia,6.9166667,-75.8
"05631",Sabaneta - Antioquia,,Sabaneta,5,Antioquia,6.15,-75.6
"05642",Salgar - Antioquia,,Salgar,5,Antioquia,6,-76
"05647",San Andrés de Cuerquía - Antioquia,,San Andrés de Cuerquía,5,Antioquia,6917,-75667
"05649",San Carlos - Antioquia,,San Carlos,5,Antioquia,6.2,-74.9166667
"05652",San Francisco - Antioquia,,San Francisco,5,Antioquia,6.1166667,-75.9833333
"05656",San Jerónimo - Antioquia,,San Jerónimo,5,Antioquia,6.45,-75.7
"05658",San José de Montaña - Antioquia,,San José de Montaña,5,Antioquia,6.8502778,-75.6833333
"05659",San Juan de Urabá - Antioquia,,San Juan de Urabá,5,Antioquia,8.7630556,-76.53
"05660",San Luís - Antioquia,,San Luís,5,Antioquia,6,-74.8333333
"05664",San Pedro - Antioquia,,San Pedro,5,Antioquia,6.45,-75.5833333
"05665",San Pedro de Urabá - Antioquia,,San Pedro de Urabá,5,Antioquia,8.2761111,-76.3786111
"05667",San Rafael - Antioquia,,San Rafael,5,Antioquia,6.3,-75
"05670",San Roque - Antioquia,,San Roque,5,Antioquia,6.4166667,-74.8333333
"05674",San Vicente - Antioquia,,San Vicente,5,Antioquia,6.3333333,-75.3333333
"05679",Santa Bárbara - Antioquia,,Santa Bárbara,5,Antioquia,5.8666667,-75.5833333
"05042",Santa Fé de Antioquia - Antioquia,,Santa Fé de Antioquia,5,Antioquia,6.5597222,-75.8280556
"05686",Santa Rosa de Osos - Antioquia,,Santa Rosa de Osos,5,Antioquia,6.6666667,-75.4166667
"05690",Santo Domingo - Antioquia,,Santo Domingo,5,Antioquia,6.4722222,-75.1647222
"05697",Santuario - Antioquia,,Santuario,5,Antioquia,6.1333333,-75.25
"05736",Segovia - Antioquia,,Segovia,5,Antioquia,7.25,-74.75
"05756",Sonsón - Antioquia,,Sonsón,5,Antioquia,5.75,-75
"05761",Sopetrán - Antioquia,,Sopetrán,5,Antioquia,6.5,-75.75
"05790",Tarazá - Antioquia,,Tarazá,5,Antioquia,7.5833333,-75.35
"05792",Tarso - Antioquia,,Tarso,5,Antioquia,5.8333333,-75.8333333
"05809",Titiribí - Antioquia,,Titiribí,5,Antioquia,6.0833333,-75.8
"05819",Toledo - Antioquia,,Toledo,5,Antioquia,7,-75.7
"05837",Turbo - Antioquia,,Turbo,5,Antioquia,8,-76.5833333
"05789",Támesis - Antioquia,,Támesis,5,Antioquia,5.6666667,-75.6666667
"05842",Uramita - Antioquia,,Uramita,5,Antioquia,6.8994444,-76.1741667
"05847",Urrao - Antioquia,,Urrao,5,Antioquia,6.3333333,-76.4166667
"05854",Valdivia - Antioquia,,Valdivia,5,Antioquia,7.3333333,-75.3333333
"05856",Valparaiso - Antioquia,,Valparaiso,5,Antioquia,5.6666667,-75.5833333
"05858",Vegachí - Antioquia,,Vegachí,5,Antioquia,6.7730556,-74.8016667
"05861",Venecia - Antioquia,,Venecia,5,Antioquia,5.9166667,-75.75
"05873",Vigía del Fuerte - Antioquia,,Vigía del Fuerte,5,Antioquia,6.5919444,-76.8986111
"05885",Yalí - Antioquia,,Yalí,5,Antioquia,6.8333333,-74.75
"05887",Yarumal - Antioquia,,Yarumal,5,Antioquia,7,-75.5
"05890",Yolombó - Antioquia,,Yolombó,5,Antioquia,6.6666667,-75
"05893",Yondó (Casabe) - Antioquia,,Yondó (Casabe),5,Antioquia,7.0077778,-73.9141667
"05895",Zaragoza - Antioquia,,Zaragoza,5,Antioquia,7.75,-74.75
"81001",Arauca - Arauca,,Arauca,81,Arauca,7.0902778,-70.7616667
"81065",Arauquita - Arauca,,Arauquita,81,Arauca,6.8219444,-71.3236111
"81220",Cravo Norte - Arauca,,Cravo Norte,81,Arauca,6.3030556,-70.2016667
"81300",Fortúl - Arauca,,Fortúl,81,Arauca,6.7461111,-71.8566667
"81591",Puerto Rondón - Arauca,,Puerto Rondón,81,Arauca,6.2780556,-71.1
"81736",Saravena - Arauca,,Saravena,81,Arauca,6.9205556,-71.8533333
"81794",Tame - Arauca,,Tame,81,Arauca,6.4641667,-71.7288889
"08078",Baranoa - Atlántico,,Baranoa,8,Atlántico,10.8,-74.9166667
"08001",Barranquilla - Atlántico,,Barranquilla,8,Atlántico,10.9638889,-74.7963889
"08137",Campo de la Cruz - Atlántico,,Campo de la Cruz,8,Atlántico,10.4166667,-74.9166667
"08141",Candelaria - Atlántico,,Candelaria,8,Atlántico,10.5,-74.8333333
"08296",Galapa - Atlántico,,Galapa,8,Atlántico,10.9166667,-74.8333333
"08132",Juan de Acosta - Atlántico,,Juan de Acosta,8,Atlántico,10.8333333,-75.0333333
"08421",Luruaco - Atlántico,,Luruaco,8,Atlántico,10.6141667,-75.1461111
"08433",Malambo - Atlántico,,Malambo,8,Atlántico,10.8588889,-74.7730556
"08436",Manatí - Atlántico,,Manatí,8,Atlántico,10.5,-75
"08520",Palmar de Varela - Atlántico,,Palmar de Varela,8,Atlántico,10.7466667,-74.7555556
"08549",Piojo - Atlántico,,Piojo,8,Atlántico,10.75,-75.1333333
"08558",Polonuevo - Atlántico,,Polonuevo,8,Atlántico,10.75,-74.7833333
"08560",Ponedera - Atlántico,,Ponedera,8,Atlántico,10.6436111,-74.7544444
"08573",Puerto Colombia - Atlántico,,Puerto Colombia,8,Atlántico,11.0166667,-74.8833333
"08606",Repelón - Atlántico,,Repelón,8,Atlántico,10.55,-75.1333333
"08634",Sabanagrande - Atlántico,,Sabanagrande,8,Atlántico,10.8,-74.75
"08638",Sabanalarga - Atlántico,,Sabanalarga,8,Atlántico,10.6333333,-74.8333333
"08675",Santa Lucía - Atlántico,,Santa Lucía,8,Atlántico,10.3286111,-74.9644444
"08685",Santo Tomás - Atlántico,,Santo Tomás,8,Atlántico,10.75,-74.8333333
"08758",Soledad - Atlántico,,Soledad,8,Atlántico,10.9172222,-74.7666667
"08770",Suan - Atlántico,,Suan,8,Atlántico,10.3333333,-74.9166667
"08832",Tubará - Atlántico,,Tubará,8,Atlántico,10.9166667,-74.95
"08849",Usiacuri - Atlántico,,Usiacuri,8,Atlántico,10.75,-74.9666667
"11001",Bogotá - Bogotá D.C.,Bogotá – Cundinamarca|Bogotá D.C.|Santa fé de Bogotá – Cundinamarca|Santa fe de bogotá – Bogotá|Santafe de bogota D.C.|Santa fe de bogota D.C.,Bogotá,11,Bogotá D.C.,4.6,-74.0833333
"13006",Achí - Bolívar,,Achí,13,Bolívar,8.25,-74.5
"13030",Altos del Rosario - Bolívar,,Altos del Rosario,13,Bolívar,8.7944444,-74.1658333
"13042",Arenal - Bolívar,,Arenal,13,Bolívar,8.4666667,-73.95
"13052",Arjona - Bolívar,,Arjona,13,Bolívar,10.1666667,-75.3333333
"13062",Arroyohondo - Bolívar,,Arroyohondo,13,Bolívar,10.2497222,-75.0113889
"13074",Barranco de Loba - Bolívar,,Barranco de Loba,13,Bolívar,8.8333333,-74.1666667
"13140",Calamar - Bolívar,,Calamar,13,Bolívar,10.25,-75
"13160",Cantagallo - Bolívar,,Cantagallo,13,Bolívar,7.3791667,-73.9180556
"13001",Cartagena - Bolívar,,Cartagena,13,Bolívar,10.3997222,-75.5144444
"13188",Cicuco - Bolívar,,Cicuco,13,Bolívar,9.4166667,-74.7333333
"13222",Clemencia - Bolívar,,Clemencia,13,Bolívar,10.5891667,-75.3341667
"13212",Córdoba - Bolívar,,Córdoba,13,Bolívar,9.5,-74.9166667
"13244",El Carmen de Bolívar - Bolívar,,El Carmen de Bolívar,13,Bolívar,9.75,-75.1666667
"13248",El Guamo - Bolívar,,El Guamo,13,Bolívar,10.0833333,-74.9166667
"13268",El Peñon - Bolívar,,El Peñon,13,Bolívar,8.9833333,-73.95
"13300",Hatillo de Loba - Bolívar,,Hatillo de Loba,13,Bolívar,8.9586111,-74.0808333
"13430",Magangué - Bolívar,,Magangué,13,Bolívar,9.2413889,-74.7533333
"13433",Mahates - Bolívar,,Mahates,13,Bolívar,10.1666667,-75.1666667
"13440",Margarita - Bolívar,,Margarita,13,Bolívar,9.0833333,-74.2
"13442",María la Baja - Bolívar,,María la Baja,13,Bolívar,10,-75.3333333
"13468",Mompós - Bolívar,,Mompós,13,Bolívar,9.25,-74.5833333
"13458",Montecristo - Bolívar,,Montecristo,13,Bolívar,8.2994444,-74.4755556
"13473",Morales - Bolívar,,Morales,13,Bolívar,8.4166667,-74
"13490",Norosí - Bolívar,,Norosí,13,Bolívar,8.5333333,-74.0333333
"13549",Pinillos - Bolívar,,Pinillos,13,Bolívar,8.9172222,-74.4663889
"13580",Regidor - Bolívar,,Regidor,13,Bolívar,8.6666667,-73.8333333
"13600",Río Viejo - Bolívar,,Río Viejo,13,Bolívar,8.59,-73.8436111
"13620",San Cristobal - Bolívar,,San Cristobal,13,Bolívar,9.8833333,-75.25
"13647",San Estanislao - Bolívar,,San Estanislao,13,Bolívar,10.3983333,-75.1511111
"13650",San Fernando - Bolívar,,San Fernando,13,Bolívar,9.0833333,-74.3333333
"13654",San Jacinto - Bolívar,,San Jacinto,13,Bolívar,9.8333333,-75.0833333
"13655",San Jacinto del Cauca - Bolívar,,San Jacinto del Cauca,13,Bolívar,9.8316667,-75.1263889
"13657",San Juan de Nepomuceno - Bolívar,,San Juan de Nepomuceno,13,Bolívar,9.9566667,-75.0866667
"13667",San Martín de Loba - Bolívar,,San Martín de Loba,13,Bolívar,8.8333333,-73.9166667
"13670",San Pablo - Bolívar,,San Pablo,13,Bolívar,10.0527778,-75.2680556
"13673",Santa Catalina - Bolívar,,Santa Catalina,13,Bolívar,10.5833333,-75.25
"13683",Santa Rosa - Bolívar,,Santa Rosa,13,Bolívar,10.45,-75.3333333
"13688",Santa Rosa del Sur - Bolívar,,Santa Rosa del Sur,13,Bolívar,7.9644444,-74.0544444
"13744",Simití - Bolívar,,Simití,13,Bolívar,7.5833333,-74.1666667
"13760",Soplaviento - Bolívar,,Soplaviento,13,Bolívar,10.3333333,-75.1
"13780",Talaigua Nuevo - Bolívar,,Talaigua Nuevo,13,Bolívar,9.3069444,-74.5686111
"13810",Tiquisio (Puerto Rico) - Bolívar,,Tiquisio (Puerto Rico),13,Bolívar,8.5597222,-74.2669444
"13836",Turbaco - Bolívar,,Turbaco,13,Bolívar,10.35,-75.3333333
"13838",Turbaná - Bolívar,,Turbaná,13,Bolívar,10.25,-75.4166667
"13873",Villanueva - Bolívar,,Villanueva,13,Bolívar,10.45,-75.25
"13894",Zambrano - Bolívar,,Zambrano,13,Bolívar,9.75,-74.8333333
"15022",Almeida - Boyacá,,Almeida,15,Boyacá,4.9166667,-73.3333333
"15047",Aquitania - Boyacá,,Aquitania,15,Boyacá,5.5197222,-72.8875
"15051",Arcabuco - Boyacá,,Arcabuco,15,Boyacá,5.8,-73.3833333
"15087",Belén - Boyacá,,Belén,15,Boyacá,6.0833333,-72.9166667
"15090",Berbeo - Boyacá,,Berbeo,15,Boyacá,5.3333333,-73
"15092",Beteitiva - Boyacá,,Beteitiva,15,Boyacá,6,-72.8333333
"15097",Boavita - Boyacá,,Boavita,15,Boyacá,6.4166667,-72.5833333
"15104",Boyacá - Boyacá,,Boyacá,15,Boyacá,5.5,-72.5
"15106",Briceño - Boyacá,,Briceño,15,Boyacá,5.75,-73.8333333
"15109",Buenavista - Boyacá,,Buenavista,15,Boyacá,5.5,-73.9666667
"15114",Busbanza - Boyacá,,Busbanza,15,Boyacá,5.9166667,-72.85
"15131",Caldas - Boyacá,,Caldas,15,Boyacá,5.55,-73.8833333
"15135",Campohermoso - Boyacá,,Campohermoso,15,Boyacá,5.0833333,-73
"15162",Cerinza - Boyacá,,Cerinza,15,Boyacá,6,-72.9166667
"15172",Chinavita - Boyacá,,Chinavita,15,Boyacá,5.25,-73.3333333
"15176",Chiquinquirá - Boyacá,,Chiquinquirá,15,Boyacá,5.6333333,-73.75
"15180",Chiscas - Boyacá,,Chiscas,15,Boyacá,6.75,-72.3333333
"15183",Chita - Boyacá,,Chita,15,Boyacá,6.1666667,-72.4166667
"15185",Chitaraque - Boyacá,,Chitaraque,15,Boyacá,6.0833333,-73.3666667
"15187",Chivatá - Boyacá,,Chivatá,15,Boyacá,5.5333333,-73.2666667
"15232",Chíquiza - Boyacá,,Chíquiza,15,Boyacá,5.6083333,-73.4886111
"15236",Chívor - Boyacá,,Chívor,15,Boyacá,4.8855556,-73.3688889
"15189",Ciénaga - Boyacá,,Ciénaga,15,Boyacá,5.4666667,-73.25
"15212",Coper - Boyacá,,Coper,15,Boyacá,5.4333333,-74.0333333
"15215",Corrales - Boyacá,,Corrales,15,Boyacá,5.8666667,-72.8333333
"15218",Covarachía - Boyacá,,Covarachía,15,Boyacá,6.5833333,-72.7
"15223",Cubará - Boyacá,,Cubará,15,Boyacá,7.0411111,-72.0608333
"15224",Cucaita - Boyacá,,Cucaita,15,Boyacá,5.5333333,-73.4666667
"15226",Cuitiva - Boyacá,,Cuitiva,15,Boyacá,5.65,-72.9166667
"15204",Cómbita - Boyacá,,Cómbita,15,Boyacá,5.75,-73.25
"15238",Duitama - Boyacá,,Duitama,15,Boyacá,5.8269444,-73.0202778
"15244",El Cocuy - Boyacá,,El Cocuy,15,Boyacá,6.4166667,-72.4166667
"15248",El Espino - Boyacá,,El Espino,15,Boyacá,6.5833333,-72.4166667
"15272",Firavitoba - Boyacá,,Firavitoba,15,Boyacá,5.75,-72.9666667
"15276",Floresta - Boyacá,,Floresta,15,Boyacá,5.9166667,-72.9166667
"15293",Gachantivá - Boyacá,,Gachantivá,15,Boyacá,5.75,-73.5
"15299",Garagoa - Boyacá,,Garagoa,15,Boyacá,5.1333333,-73.3
"15317",Guacamayas - Boyacá,,Guacamayas,15,Boyacá,6.5,-72.5
"15322",Guateque - Boyacá,,Guateque,15,Boyacá,5.0833333,-73.5
"15325",Guayatá - Boyacá,,Guayatá,15,Boyacá,5,-73.5
"15332",Guicán - Boyacá,,Guicán,15,Boyacá,6.75,-72.1666667
"15296",Gámeza - Boyacá,,Gámeza,15,Boyacá,5.85,-72.75
"15362",Izá - Boyacá,,Izá,15,Boyacá,5.6666667,-72.9166667
"15367",Jenesano - Boyacá,,Jenesano,15,Boyacá,5.3888889,-73.3680556
"15368",Jericó - Boyacá,,Jericó,15,Boyacá,6.2,-72.5833333
"15380",La Capilla - Boyacá,,La Capilla,15,Boyacá,5.15,-73.45
"15403",La Uvita - Boyacá,,La Uvita,15,Boyacá,6.3333333,-72.5
"15401",La Victoria - Boyacá,,La Victoria,15,Boyacá,5.5258333,-74.2361111
"15377",Labranzagrande - Boyacá,,Labranzagrande,15,Boyacá,5.5833333,-72.5833333
"15425",Macanal - Boyacá,,Macanal,15,Boyacá,4.9166667,-73.25
"15442",Maripí - Boyacá,,Maripí,15,Boyacá,5.5833333,-74
"15455",Miraflores - Boyacá,,Miraflores,15,Boyacá,5.25,-73.1666667
"15464",Mongua - Boyacá,,Mongua,15,Boyacá,5.8333333,-72.6666667
"15466",Monguí - Boyacá,,Monguí,15,Boyacá,5.75,-72.8333333
"15469",Moniquirá - Boyacá,,Moniquirá,15,Boyacá,5.9166667,-73.5
"15476",Motavita - Boyacá,,Motavita,15,Boyacá,5.5797222,-73.3713889
"15480",Muzo - Boyacá,,Muzo,15,Boyacá,5.5166667,-74.1166667
"15491",Nobsa - Boyacá,,Nobsa,15,Boyacá,5.8333333,-72.9166667
"15494",Nuevo Colón - Boyacá,,Nuevo Colón,15,Boyacá,5.4166667,-73.4166667
"15500",Oicatá - Boyacá,,Oicatá,15,Boyacá,5.6,-73.3166667
"15507",Otanche - Boyacá,,Otanche,15,Boyacá,5.75,-74.25
"15511",Pachavita - Boyacá,,Pachavita,15,Boyacá,5.1333333,-73.4
"15516",Paipa - Boyacá,,Paipa,15,Boyacá,5.8333333,-73.1
"15518",Pajarito - Boyacá,,Pajarito,15,Boyacá,5.4166667,-72.6666667
"15522",Panqueba - Boyacá,,Panqueba,15,Boyacá,6.5,-72.4166667
"15531",Pauna - Boyacá,,Pauna,15,Boyacá,5.75,-73.9166667
"15532",Paya - Boyacá,,Paya,15,Boyacá,5.6666667,-72.3816667
"15537",Paz de Río - Boyacá,,Paz de Río,15,Boyacá,6.0833333,-72.75
"15542",Pesca - Boyacá,,Pesca,15,Boyacá,5.5833333,-73.05
"15550",Pisva - Boyacá,,Pisva,15,Boyacá,5.7427778,-72.4894444
"15572",Puerto Boyacá - Boyacá,,Puerto Boyacá,15,Boyacá,5.9780556,-74.5897222
"15514",Páez - Boyacá,,Páez,15,Boyacá,5.1044444,-73.0555556
"15580",Quipama - Boyacá,,Quipama,15,Boyacá,5.5222222,-74.1808333
"15599",Ramiriquí - Boyacá,,Ramiriquí,15,Boyacá,5.4166667,-73.3333333
"15621",Rondón - Boyacá,,Rondón,15,Boyacá,5.4166667,-73.1666667
"15600",Ráquira - Boyacá,,Ráquira,15,Boyacá,5.6166667,-73.6333333
"15632",Saboyá - Boyacá,,Saboyá,15,Boyacá,5.75,-73.7
"15646",Samacá - Boyacá,,Samacá,15,Boyacá,5.5,-73.5
"15660",San Eduardo - Boyacá,,San Eduardo,15,Boyacá,5.2166667,-73.1333333
"15664",San José de Pare - Boyacá,,San José de Pare,15,Boyacá,6.0833333,-73.4666667
"15667",San Luís de Gaceno - Boyacá,,San Luís de Gaceno,15,Boyacá,4.8213889,-73.1675
"15673",San Mateo - Boyacá,,San Mateo,15,Boyacá,6.5,-72.5
"15676",San Miguel de Sema - Boyacá,,San Miguel de Sema,15,Boyacá,5.55,-73.75
"15681",San Pablo de Borbur - Boyacá,,San Pablo de Borbur,15,Boyacá,5.75,-74.0833333
"15690",Santa María - Boyacá,,Santa María,15,Boyacá,4.8616667,-73.2641667
"15693",Santa Rosa de Viterbo - Boyacá,,Santa Rosa de Viterbo,15,Boyacá,5.9166667,-73
"15696",Santa Sofía - Boyacá,,Santa Sofía,15,Boyacá,5.75,-73.5833333
"15686",Santana - Boyacá,,Santana,15,Boyacá,6.0572222,-73.4822222
"15720",Sativanorte - Boyacá,,Sativanorte,15,Boyacá,6.1666667,-72.6666667
"15723",Sativasur - Boyacá,,Sativasur,15,Boyacá,6.1333333,-72.6666667
"15740",Siachoque - Boyacá,,Siachoque,15,Boyacá,5.5833333,-73.1666667
"15753",Soatá - Boyacá,,Soatá,15,Boyacá,6.4166667,-72.6666667
"15757",Socha - Boyacá,,Socha,15,Boyacá,6,-72.6666667
"15755",Socotá - Boyacá,,Socotá,15,Boyacá,6.0833333,-72.5833333
"15759",Sogamoso - Boyacá,,Sogamoso,15,Boyacá,5.7205556,-72.9297222
"15761",Somondoco - Boyacá,,Somondoco,15,Boyacá,4.9877778,-73.4361111
"15762",Sora - Boyacá,,Sora,15,Boyacá,5.5666667,-73.4333333
"15764",Soracá - Boyacá,,Soracá,15,Boyacá,5.5,-73.3166667
"15763",Sotaquirá - Boyacá,,Sotaquirá,15,Boyacá,5.8333333,-73.25
"15774",Susacón - Boyacá,,Susacón,15,Boyacá,6.2666667,-72.6666667
"15776",Sutamarchán - Boyacá,,Sutamarchán,15,Boyacá,5.6666667,-73.5833333
"15778",Sutatenza - Boyacá,,Sutatenza,15,Boyacá,5.0166667,-73.45
"15638",Sáchica - Boyacá,,Sáchica,15,Boyacá,5.6666667,-73.5
"15790",Tasco - Boyacá,,Tasco,15,Boyacá,5.9166667,-72.7
"15798",Tenza - Boyacá,,Tenza,15,Boyacá,5.15,-73.45
"15804",Tibaná - Boyacá,,Tibaná,15,Boyacá,5.3333333,-73.3833333
"15806",Tibasosa - Boyacá,,Tibasosa,15,Boyacá,5.8333333,-72.9666667
"15808",Tinjacá - Boyacá,,Tinjacá,15,Boyacá,5.6333333,-73.65
"15810",Tipacoque - Boyacá,,Tipacoque,15,Boyacá,6.4233333,-72.6952778
"15814",Toca - Boyacá,,Toca,15,Boyacá,5.6666667,-73.1666667
"15816",Toguí - Boyacá,,Toguí,15,Boyacá,5.95,-73.4166667
"15820",Topagá - Boyacá,,Topagá,15,Boyacá,5.8333333,-72.8333333
"15822",Tota - Boyacá,,Tota,15,Boyacá,5.5,-73
"15001",Tunja - Boyacá,,Tunja,15,Boyacá,5.5352778,-73.3677778
"15832",Tunungua - Boyacá,,Tunungua,15,Boyacá,5.7333333,-73.9333333
"15835",Turmequé - Boyacá,,Turmequé,15,Boyacá,5.3333333,-73.5
"15837",Tuta - Boyacá,,Tuta,15,Boyacá,5.75,-73.1666667
"15839",Tutasá - Boyacá,,Tutasá,15,Boyacá,6.1666667,-72.8333333
"15861",Ventaquemada - Boyacá,,Ventaquemada,15,Boyacá,5.4166667,-73.5
"15407",Villa de Leiva - Boyacá,,Villa de Leiva,15,Boyacá,5.6333333,-73.5333333
"15879",Viracachá - Boyacá,,Viracachá,15,Boyacá,5.5,-73.25
"15897",Zetaquirá - Boyacá,,Zetaquirá,15,Boyacá,5.35,-73.1666667
"15842",Úmbita - Boyacá,,Úmbita,15,Boyacá,5.2333333,-73.45
"17013",Aguadas - Caldas,,Aguadas,17,Caldas,5.6333333,-75.4166667
"17042",Anserma - Caldas,,Anserma,17,Caldas,5.25,-75.75
"17050",Aranzazu - Caldas,,Aranzazu,17,Caldas,5.3,-75.45
"17088",Belalcázar - Caldas,,Belalcázar,17,Caldas,5,-75.8333333
"17174",Chinchiná - Caldas,,Chinchiná,17,Caldas,5,-75.6666667
"17272",Filadelfia - Caldas,,Filadelfia,17,Caldas,5.3,-75.6
"17380",La Dorada - Caldas,,La Dorada,17,Caldas,5.5333333,-74.7
"17388",La Merced - Caldas,,La Merced,17,Caldas,5.4019444,-75.8847222
"17867",La Victoria - Caldas,,La Victoria,17,Caldas,4.5238889,-76.0411111
"17001",Manizales - Caldas,,Manizales,17,Caldas,5.07,-75.5205556
"17433",Manzanares - Caldas,,Manzanares,17,Caldas,5.25,-75.1666667
"17442",Marmato - Caldas,,Marmato,17,Caldas,5.5,-75.5833333
"17444",Marquetalia - Caldas,,Marquetalia,17,Caldas,5.3333333,-75
"17446",Marulanda - Caldas,,Marulanda,17,Caldas,5.3333333,-75.25
"17486",Neira - Caldas,,Neira,17,Caldas,5.1666667,-75.5
"17495",Norcasia - Caldas,,Norcasia,17,Caldas,5.5666667,-74.8833333
"17524",Palestina - Caldas,,Palestina,17,Caldas,5.0833333,-75.6666667
"17541",Pensilvania - Caldas,,Pensilvania,17,Caldas,5.5,-75.0833333
"17513",Pácora - Caldas,,Pácora,17,Caldas,5.5,-75.5
"17616",Risaralda - Caldas,,Risaralda,17,Caldas,5.1666667,-75.75
"17614",Río Sucio - Caldas,,Río Sucio,17,Caldas,5.3791667,-75.6161111
"17653",Salamina - Caldas,,Salamina,17,Caldas,5.4166667,-75.4166667
"17662",Samaná - Caldas,,Samaná,17,Caldas,5.5833333,-74.9166667
"17665",San José - Caldas,,San José,17,Caldas,5.0858333,-75.7883333
"17777",Supía - Caldas,,Supía,17,Caldas,5.5,-75.6333333
"17873",Villamaría - Caldas,,Villamaría,17,Caldas,5,-75.5
"17877",Viterbo - Caldas,,Viterbo,17,Caldas,5.0833333,-75.8666667
"18029",Albania - Caquetá,,Albania,18,Caquetá,1.3316667,-75.8822222
"18094",Belén de los Andaquíes - Caquetá,,Belén de los Andaquíes,18,Caquetá,1.4166667,-75.9166667
"18150",Cartagena del Chairá - Caquetá,,Cartagena del Chairá,18,Caquetá,1.35,-74.84
"18205",Curillo - Caquetá,,Curillo,18,Caquetá,1.0352778,-75.9247222
"18247",El Doncello - Caquetá,,El Doncello,18,Caquetá,1.6794444,-75.2791667
"18256",El Paujil - Caquetá,,El Paujil,18,Caquetá,1564,-75332
"18001",Florencia - Caquetá,,Florencia,18,Caquetá,1.6175,-75.6175
"18410",La Montañita - Caquetá,,La Montañita,18,Caquetá,1.5833333,-75.25
"18460",Milán - Caquetá,,Milán,18,Caquetá,1.3483333,-75.5116667
"18479",Morelia - Caquetá,,Morelia,18,Caquetá,1.4875,-75725
"18592",Puerto Rico - Caquetá,,Puerto Rico,18,Caquetá,1.9141667,-75145
"18610",San José del Fragua - Caquetá,,San José del Fragua,18,Caquetá,1.3611111,-75.9883333
"18753",San Vicente del Caguán - Caquetá,,San Vicente del Caguán,18,Caquetá,2.1525,-74.7888889
"18765",Solano - Caquetá,,Solano,18,Caquetá,0.7147222,-75.2486111
"18785",Solita - Caquetá,,Solita,18,Caquetá,0.9,-75623
"18860",Valparaiso - Caquetá,,Valparaiso,18,Caquetá,1.1991667,-75.7097222
"85010",Aguazul - Casanare,,Aguazul,85,Casanare,5.1730556,-72.5547222
"85015",Chámeza - Casanare,,Chámeza,85,Casanare,5,-72.75
"85125",Hato Corozal - Casanare,,Hato Corozal,85,Casanare,6.1555556,-71.7655556
"85136",La Salina - Casanare,,La Salina,85,Casanare,6.1852778,-72.3444444
"85139",Maní - Casanare,,Maní,85,Casanare,4.8333333,-72.3333333
"85162",Monterrey - Casanare,,Monterrey,85,Casanare,4.9166667,-72.8333333
"85225",Nunchía - Casanare,,Nunchía,85,Casanare,5.6405556,-72.1986111
"85230",Orocué - Casanare,,Orocué,85,Casanare,4.7941667,-71.34
"85250",Paz de Ariporo - Casanare,,Paz de Ariporo,85,Casanare,5.8833333,-71.9
"85263",Pore - Casanare,,Pore,85,Casanare,5.6708333,-71.93
"85279",Recetor - Casanare,,Recetor,85,Casanare,5.3333333,-72.75
"85300",Sabanalarga - Casanare,,Sabanalarga,85,Casanare,4.8536111,-73.0430556
"85325",San Luís de Palenque - Casanare,,San Luís de Palenque,85,Casanare,5.2805556,-71.5819444
"85315",Sácama - Casanare,,Sácama,85,Casanare,6.0833333,-72.0833333
"85410",Tauramena - Casanare,,Tauramena,85,Casanare,5.0186111,-72.7552778
"85430",Trinidad - Casanare,,Trinidad,85,Casanare,5.4305556,-71.6311111
"85400",Támara - Casanare,,Támara,85,Casanare,5.8297222,-72.1633333
"85440",Villanueva - Casanare,,Villanueva,85,Casanare,5.2833333,-71.9666667
"85001",Yopal - Casanare,,Yopal,85,Casanare,5.3394444,-72.3941667
"19022",Almaguer - Cauca,,Almaguer,19,Cauca,1.9166667,-76.8333333
"19050",Argelia - Cauca,,Argelia,19,Cauca,2.2666667,-77.25
"19075",Balboa - Cauca,,Balboa,19,Cauca,2.1,-77.2
"19100",Bolívar - Cauca,,Bolívar,19,Cauca,1.8333333,-76.9166667
"19110",Buenos Aires - Cauca,,Buenos Aires,19,Cauca,2.9166667,-76.6666667
"19130",Cajibío - Cauca,,Cajibío,19,Cauca,2.6666667,-76.6666667
"19137",Caldono - Cauca,,Caldono,19,Cauca,2.8333333,-76.4166667
"19142",Caloto - Cauca,,Caloto,19,Cauca,3.0833333,-76.3333333
"19212",Corinto - Cauca,,Corinto,19,Cauca,3.1666667,-76.2
"19256",El Tambo - Cauca,,El Tambo,19,Cauca,2.5,-77
"19290",Florencia - Cauca,,Florencia,19,Cauca,1.6944444,-77.0758333
"19300",Guachené - Cauca,,Guachené,19,Cauca,3.1333333,-76.3833333
"19318",Guapí - Cauca,,Guapí,19,Cauca,2.4166667,-77.6
"19355",Inzá - Cauca,,Inzá,19,Cauca,2.6666667,-76.0833333
"19364",Jambaló - Cauca,,Jambaló,19,Cauca,2.85,-76.3166667
"19392",La Sierra - Cauca,,La Sierra,19,Cauca,2.25,-76.8333333
"19397",La Vega - Cauca,,La Vega,19,Cauca,2.0833333,-76.8333333
"19418",López (Micay) - Cauca,,López (Micay),19,Cauca,2.4333333,-76.8
"19450",Mercaderes - Cauca,,Mercaderes,19,Cauca,1.75,-77.1666667
"19455",Miranda - Cauca,,Miranda,19,Cauca,3.25,-76.25
"19473",Morales - Cauca,,Morales,19,Cauca,2.8,-76.6666667
"19513",Padilla - Cauca,,Padilla,19,Cauca,3.0666667,-76.3166667
"19532",Patía (El Bordo) - Cauca,,Patía (El Bordo),19,Cauca,2.1155556,-76.9891667
"19533",Piamonte - Cauca,,Piamonte,19,Cauca,7.7833333,-75.2
"19548",Piendamó - Cauca,,Piendamó,19,Cauca,2.75,-76.5
"19001",Popayán - Cauca,,Popayán,19,Cauca,2.45,-76.6166667
"19573",Puerto Tejada - Cauca,,Puerto Tejada,19,Cauca,3.25,-76.4166667
"19585",Puracé (Coconuco) - Cauca,,Puracé (Coconuco),19,Cauca,2.3480556,-76.5008333
"19517",Páez (Belalcazar) - Cauca,,Páez (Belalcazar),19,Cauca,5.1044444,-73.0555556
"19622",Rosas - Cauca,,Rosas,19,Cauca,2.3333333,-76.75
"19693",San Sebastián - Cauca,,San Sebastián,19,Cauca,1.9166667,-76.6666667
"19701",Santa Rosa - Cauca,,Santa Rosa,19,Cauca,1.5,-76.5
"19698",Santander de Quilichao - Cauca,,Santander de Quilichao,19,Cauca,3.0130556,-76.4866667
"19743",Silvia - Cauca,,Silvia,19,Cauca,2.75,-76.3333333
"19760",Sotara (Paispamba) - Cauca,,Sotara (Paispamba),19,Cauca,2.2566667,-76.6186111
"19785",Sucre - Cauca,,Sucre,19,Cauca,2.0333333,-76.9166667
"19780",Suárez - Cauca,,Suárez,19,Cauca,2.9588889,-76.6952778
"19809",Timbiquí - Cauca,,Timbiquí,19,Cauca,2.75,-77.5833333
"19807",Timbío - Cauca,,Timbío,19,Cauca,2.4166667,-76.75
"19821",Toribío - Cauca,,Toribío,19,Cauca,3,-76.1666667
"19824",Totoró - Cauca,,Totoró,19,Cauca,2.5833333,-76.3333333
"19845",Villa Rica - Cauca,,Villa Rica,19,Cauca,2.5136111,-76.8477778
"20011",Aguachica - Cesar,,Aguachica,20,Cesar,8.3333333,-73.5833333
"20013",Agustín Codazzi - Cesar,,Agustín Codazzi,20,Cesar,9.9166667,-73.25
"20032",Astrea - Cesar,,Astrea,20,Cesar,9.5011111,-73.9802778
"20045",Becerríl - Cesar,,Becerríl,20,Cesar,9705,-73.2847222
"20060",Bosconia - Cesar,,Bosconia,20,Cesar,9.9761111,-73.8902778
"20175",Chimichagua - Cesar,,Chimichagua,20,Cesar,9.2577778,-73.8177778
"20178",Chiriguaná - Cesar,,Chiriguaná,20,Cesar,9.5,-73.4166667
"20228",Curumaní - Cesar,,Curumaní,20,Cesar,9.2041667,-73.5486111
"20238",El Copey - Cesar,,El Copey,20,Cesar,10.1505556,-73965
"20250",El Paso - Cesar,,El Paso,20,Cesar,9.6622222,-73.7519444
"20295",Gamarra - Cesar,,Gamarra,20,Cesar,8.3333333,-73.6666667
"20310",Gonzalez - Cesar,,Gonzalez,20,Cesar,8.4,-73.3333333
"20383",La Gloria - Cesar,,La Gloria,20,Cesar,8.5833333,-73.5833333
"20400",La Jagua de Ibirico - Cesar,La Jagua - Cesar,La Jagua de Ibirico,20,Cesar,9.5641667,-73.3375
"20621",La Paz (Robles) - Cesar,La Paz - Cesar,La Paz (Robles),20,Cesar,10.1666667,-73.25
"20443",Manaure Balcón del Cesar - Cesar,Manaure - Cesar,Manaure Balcón del Cesar,20,Cesar,10.3927778,-73.0325
"20517",Pailitas - Cesar,,Pailitas,20,Cesar,8.9661111,-73.6316667
"20550",Pelaya - Cesar,,Pelaya,20,Cesar,8.6916667,-73.6663889
"20570",Pueblo Bello - Cesar,,Pueblo Bello,20,Cesar,10.3666667,-73.6333333
"20614",Río de oro - Cesar,,Río de oro,20,Cesar,8,-73.5
"20710",San Alberto - Cesar,,San Alberto,20,Cesar,7.7525,-73.3891667
"20750",San Diego - Cesar,,San Diego,20,Cesar,10.3375,-73.1825
"20770",San Martín - Cesar,,San Martín,20,Cesar,8.0047222,-73.5152778
"20787",Tamalameque - Cesar,,Tamalameque,20,Cesar,8.8333333,-73.5833333
"20001",Valledupar - Cesar,,Valledupar,20,Cesar,10.4769444,-73.2505556
"27006",Acandí - Chocó,,Acandí,27,Chocó,8.3333333,-77.1666667
"27025",Alto Baudó (Pie de Pato) - Chocó,,Alto Baudó (Pie de Pato),27,Chocó,5.6666667,-77
"27050",Atrato (Yuto) - Chocó,,Atrato (Yuto),27,Chocó,5.5333333,-76.6333333
"27073",Bagadó - Chocó,,Bagadó,27,Chocó,5.5,-76.25
"27075",Bahía Solano (Mútis) - Chocó,,Bahía Solano (Mútis),27,Chocó,6.2191667,-77.4077778
"27077",Bajo Baudó (Pizarro) - Chocó,,Bajo Baudó (Pizarro),27,Chocó,4.95,-77.0833333
"27086",Belén de Bajirá - Chocó,,Belén de Bajirá,27,Chocó,7.3725,-76.7147222
"27099",Bojayá (Bellavista) - Chocó,,Bojayá (Bellavista),27,Chocó,6.5236111,-76.9744444
"27135",Cantón de San Pablo - Chocó,,Cantón de San Pablo,27,Chocó,5.3388889,-76.7313889
"27150",Carmen del Darién (CURBARADÓ) - Chocó,,Carmen del Darién (CURBARADÓ),27,Chocó,7158,-76971
"27205",Condoto - Chocó,,Condoto,27,Chocó,5.1666667,-76.5
"27160",Cértegui - Chocó,,Cértegui,27,Chocó,5.4,-76.6
"27245",El Carmen de Atrato - Chocó,,El Carmen de Atrato,27,Chocó,5.898333,-76.143056
"27361",Istmina - Chocó,,Istmina,27,Chocó,5.1588889,-76.6916667
"27372",Juradó - Chocó,,Juradó,27,Chocó,7,-77.6666667
"27413",Lloró - Chocó,,Lloró,27,Chocó,5.5833333,-76.4166667
"27425",Medio Atrato - Chocó,,Medio Atrato,27,Chocó,5995,-76.7825
"27430",Medio Baudó - Chocó,,Medio Baudó,27,Chocó,5.049722,-77.052222
"27450",Medio San Juan (ANDAGOYA) - Chocó,,Medio San Juan (ANDAGOYA),27,Chocó,5.1,-76683
"27491",Novita - Chocó,,Novita,27,Chocó,4.9166667,-76.5833333
"27495",Nuquí - Chocó,,Nuquí,27,Chocó,6,-77.3333333
"27001",Quibdó - Chocó,,Quibdó,27,Chocó,5.6947222,-76.6611111
"27580",Río Iró - Chocó,,Río Iró,27,Chocó,5.1,-76.6666667
"27600",Río Quito - Chocó,,Río Quito,27,Chocó,5.7,-76.6666667
"27615",Ríosucio - Chocó,,Ríosucio,27,Chocó,7.4166667,-77.1666667
"27660",San José del Palmar - Chocó,,San José del Palmar,27,Chocó,4.9166667,-76.25
"27250",Santa Genoveva de Docorodó - Chocó,,Santa Genoveva de Docorodó,27,Chocó,4.2586111,-77.3675
"27745",Sipí - Chocó,,Sipí,27,Chocó,4.5833333,-76.5
"27787",Tadó - Chocó,,Tadó,27,Chocó,5.3333333,-76.4166667
"27800",Unguía - Chocó,,Unguía,27,Chocó,8.0430556,-77.0961111
"27810",Unión Panamericana (ÁNIMAS) - Chocó,,Unión Panamericana (ÁNIMAS),27,Chocó,5283,-76617
"23068",Ayapel - Córdoba,,Ayapel,23,Córdoba,8.25,-75.25
"23079",Buenavista - Córdoba,,Buenavista,23,Córdoba,8.7575,-75.89
"23090",Canalete - Córdoba,,Canalete,23,Córdoba,8.6761111,-76.2041667
"23162",Cereté - Córdoba,,Cereté,23,Córdoba,8.9166667,-76
"23168",Chimá - Córdoba,,Chimá,23,Córdoba,9.0833333,-75.6333333
"23182",Chinú - Córdoba,,Chinú,23,Córdoba,9.0833333,-75.3333333
"23189",Ciénaga de Oro - Córdoba,,Ciénaga de Oro,23,Córdoba,8.8333333,-75.6666667
"23300",Cotorra - Córdoba,,Cotorra,23,Córdoba,9.05,-75.8
"23350",La Apartada y La Frontera - Córdoba,,La Apartada y La Frontera,23,Córdoba,8.05,-75.335556
"23417",Lorica - Córdoba,,Lorica,23,Córdoba,9.1666667,-75.8333333
"23419",Los Córdobas - Córdoba,,Los Córdobas,23,Córdoba,8.9,-76.3597222
"23464",Momil - Córdoba,,Momil,23,Córdoba,9.2372222,-75.6780556
"23466",Montelíbano - Córdoba,,Montelíbano,23,Córdoba,7.75,-75.6666667
"23001",Monteria - Córdoba,,Montería,23,Córdoba,8.7575,-75.89
"23500",Moñitos - Córdoba,,Moñitos,23,Córdoba,8.25,-76.05
"23555",Planeta Rica - Córdoba,,Planeta Rica,23,Córdoba,8.3333333,-75.5833333
"23570",Pueblo Nuevo - Córdoba,,Pueblo Nuevo,23,Córdoba,8.2333333,-74.9666667
"23574",Puerto Escondido - Córdoba,,Puerto Escondido,23,Córdoba,8.95,-76.25
"23580",Puerto Libertador - Córdoba,,Puerto Libertador,23,Córdoba,4.6,-74.1166667
"23586",Purísima - Córdoba,,Purísima,23,Córdoba,9.3,-75.6666667
"23660",Sahagún - Córdoba,,Sahagún,23,Córdoba,8.8333333,-75.4166667
"23670",San Andrés Sotavento - Córdoba,,San Andrés Sotavento,23,Córdoba,9.1666667,-75.55
"23672",San Antero - Córdoba,,San Antero,23,Córdoba,9.35,-75.75
"23675",San Bernardo del Viento - Córdoba,,San Bernardo del Viento,23,Córdoba,9.25,-76
"23678",San Carlos - Córdoba,,San Carlos,23,Córdoba,8.7,-75.7
"23682",San José de Uré - Córdoba,,San José de Uré,23,Córdoba,7767,-75517
"23686",San Pelayo - Córdoba,,San Pelayo,23,Córdoba,9,-75.9166667
"23807",Tierralta - Córdoba,,Tierralta,23,Córdoba,8.1736111,-76.0591667
"23815",Tuchín - Córdoba,,Tuchín,23,Córdoba,9.1833333,-75.55
"23855",Valencia - Córdoba,,Valencia,23,Córdoba,8.3,-76.1666667
"25001",Agua de Dios - Cundinamarca,,Agua de Dios,25,Cundinamarca,4.4166667,-74.6666667
"25019",Albán - Cundinamarca,,Albán,25,Cundinamarca,4.9166667,-74.45
"25035",Anapoima - Cundinamarca,,Anapoima,25,Cundinamarca,4.6166667,-74.55
"25040",Anolaima - Cundinamarca,,Anolaima,25,Cundinamarca,4.8333333,-74.5
"25599",Apulo - Cundinamarca,,Apulo,25,Cundinamarca,4.5833333,-74.5833333
"25053",Arbeláez - Cundinamarca,,Arbeláez,25,Cundinamarca,4.3,-74.5833333
"25086",Beltrán - Cundinamarca,,Beltrán,25,Cundinamarca,4.8,-74.75
"25095",Bituima - Cundinamarca,,Bituima,25,Cundinamarca,4.9166667,-74.55
"25099",Bojacá - Cundinamarca,,Bojacá,25,Cundinamarca,4.75,-74.3333333
"25120",Cabrera - Cundinamarca,,Cabrera,25,Cundinamarca,3.9780556,-74.4858333
"25123",Cachipay - Cundinamarca,,Cachipay,25,Cundinamarca,5.2666667,-74.5666667
"25126",Cajicá - Cundinamarca,,Cajicá,25,Cundinamarca,5,-74.05
"25148",Caparrapí - Cundinamarca,,Caparrapí,25,Cundinamarca,5.4166667,-74.5833333
"25154",Carmen de Carupa - Cundinamarca,,Carmen de Carupa,25,Cundinamarca,5.3502778,-73.9052778
"25168",Chaguaní - Cundinamarca,,Chaguaní,25,Cundinamarca,5,-74.65
"25178",Chipaque - Cundinamarca,,Chipaque,25,Cundinamarca,4.5,-74.0833333
"25181",Choachí - Cundinamarca,,Choachí,25,Cundinamarca,4.5833333,-73.9166667
"25183",Chocontá - Cundinamarca,,Chocontá,25,Cundinamarca,5.1666667,-73.6666667
"25175",Chía - Cundinamarca,,Chía,25,Cundinamarca,4.9166667,-74.05
"25200",Cogua - Cundinamarca,,Cogua,25,Cundinamarca,5.15,-73.9666667
"25214",Cota - Cundinamarca,,Cota,25,Cundinamarca,4.8333333,-74.1333333
"25224",Cucunubá - Cundinamarca,,Cucunubá,25,Cundinamarca,5.25,-73.75
"25151",Cáqueza - Cundinamarca,,Cáqueza,25,Cundinamarca,4.45,-73.95
"25245",El Colegio - Cundinamarca,,El Colegio,25,Cundinamarca,4.5833333,-74.45
"25258",El Peñón - Cundinamarca,,El Peñón,25,Cundinamarca,5.3333333,-74.3333333
"25260",El Rosal - Cundinamarca,,El Rosal,25,Cundinamarca,4.85,-74.2666667
"25269",Facatativá - Cundinamarca,,Facatativá,25,Cundinamarca,4.8166667,-74.3666667
"25281",Fosca - Cundinamarca,,Fosca,25,Cundinamarca,4.3333333,-73.9166667
"25286",Funza - Cundinamarca,,Funza,25,Cundinamarca,4.7833333,-74.2
"25290",Fusagasugá - Cundinamarca,Fusa - Cundinamarca,Fusagasugá,25,Cundinamarca,4.4166667,-74.4
"25279",Fómeque - Cundinamarca,,Fómeque,25,Cundinamarca,4.5833333,-73.8333333
"25288",Fúquene - Cundinamarca,,Fúquene,25,Cundinamarca,5.4166667,-73.8
"25293",Gachalá - Cundinamarca,,Gachalá,25,Cundinamarca,4.6666667,-73.5
"25295",Gachancipá - Cundinamarca,,Gachancipá,25,Cundinamarca,5.0833333,-73.8833333
"25297",Gachetá - Cundinamarca,,Gachetá,25,Cundinamarca,4.9166667,-73.6666667
"25299",Gama - Cundinamarca,,Gama,25,Cundinamarca,4.75,-73.6
"25307",Girardot - Cundinamarca,,Girardot,25,Cundinamarca,4.3030556,-74.8008333
"25312",Granada - Cundinamarca,,Granada,25,Cundinamarca,5.0666667,-74.5666667
"25317",Guachetá - Cundinamarca,,Guachetá,25,Cundinamarca,5.4166667,-73.7
"25320",Guaduas - Cundinamarca,,Guaduas,25,Cundinamarca,5.25,-74.6666667
"25322",Guasca - Cundinamarca,,Guasca,25,Cundinamarca,4.8333333,-73.8333333
"25324",Guataquí - Cundinamarca,,Guataquí,25,Cundinamarca,4.5833333,-74.8
"25326",Guatavita - Cundinamarca,,Guatavita,25,Cundinamarca,4.9666667,-73.75
"25328",Guayabal de Siquima - Cundinamarca,,Guayabal de Siquima,25,Cundinamarca,4.8813889,-74.4702778
"25335",Guayabetal - Cundinamarca,,Guayabetal,25,Cundinamarca,4.2163889,-73.8133333
"25339",Gutiérrez - Cundinamarca,,Gutiérrez,25,Cundinamarca,4.25,-74
"25368",Jerusalén - Cundinamarca,,Jerusalén,25,Cundinamarca,4.6666667,-74.6666667
"25372",Junín - Cundinamarca,,Junín,25,Cundinamarca,4.75,-73.6666667
"25377",La Calera - Cundinamarca,,La Calera,25,Cundinamarca,4.75,-73.9166667
"25386",La Mesa - Cundinamarca,,La Mesa,25,Cundinamarca,4.6666667,-74.5
"25394",La Palma - Cundinamarca,,La Palma,25,Cundinamarca,5.4166667,-74.4166667
"25398",La Peña - Cundinamarca,,La Peña,25,Cundinamarca,5.25,-74.4166667
"25402",La Vega - Cundinamarca,,La Vega,25,Cundinamarca,5,-74.35
"25407",Lenguazaque - Cundinamarca,,Lenguazaque,25,Cundinamarca,5.3333333,-73.6666667
"25426",Machetá - Cundinamarca,,Machetá,25,Cundinamarca,5.0833333,-73.6166667
"25430",Madrid - Cundinamarca,,Madrid,25,Cundinamarca,4.8333333,-74.3
"25436",Manta - Cundinamarca,,Manta,25,Cundinamarca,5.0833333,-73.5833333
"25438",Medina - Cundinamarca,,Medina,25,Cundinamarca,4.5,-73.3333333
"25473",Mosquera - Cundinamarca,,Mosquera,25,Cundinamarca,4.75,-74.3333333
"25483",Nariño - Cundinamarca,,Nariño,25,Cundinamarca,4.45,-74.8
"25486",Nemocón - Cundinamarca,,Nemocón,25,Cundinamarca,5.1333333,-73.9
"25488",Nilo - Cundinamarca,,Nilo,25,Cundinamarca,4.3333333,-74.5833333
"25489",Nimaima - Cundinamarca,,Nimaima,25,Cundinamarca,5.2,-74.4166667
"25491",Nocaima - Cundinamarca,,Nocaima,25,Cundinamarca,5.1166667,-74.4166667
"25513",Pacho - Cundinamarca,,Pacho,25,Cundinamarca,5.25,-74.1666667
"25518",Paime - Cundinamarca,,Paime,25,Cundinamarca,5.4166667,-74.1666667
"25524",Pandi - Cundinamarca,,Pandi,25,Cundinamarca,4.25,-74.5
"25530",Paratebueno - Cundinamarca,,Paratebueno,25,Cundinamarca,4.3730556,-73.2213889
"25535",Pasca - Cundinamarca,,Pasca,25,Cundinamarca,4.3333333,-74.2833333
"25572",Puerto Salgar - Cundinamarca,,Puerto Salgar,25,Cundinamarca,5.5,-74.5833333
"25580",Pulí - Cundinamarca,,Pulí,25,Cundinamarca,4.75,-74.6666667
"25592",Quebradanegra - Cundinamarca,,Quebradanegra,25,Cundinamarca,5.15,-74.5
"25594",Quetame - Cundinamarca,,Quetame,25,Cundinamarca,4.3333333,-73.8333333
"25596",Quipile - Cundinamarca,,Quipile,25,Cundinamarca,4.75,-74.5833333
"25612",Ricaurte - Cundinamarca,,Ricaurte,25,Cundinamarca,4.2797222,-74.7761111
"25645",San Antonio de Tequendama - Cundinamarca,,San Antonio de Tequendama,25,Cundinamarca,4.1333333,-74.5
"25649",San Bernardo - Cundinamarca,,San Bernardo,25,Cundinamarca,4.2,-74.3333333
"25653",San Cayetano - Cundinamarca,,San Cayetano,25,Cundinamarca,5.3333333,-74.0833333
"25658",San Francisco - Cundinamarca,,San Francisco,25,Cundinamarca,5,-74.2833333
"25662",San Juan de Río Seco - Cundinamarca,,San Juan de Río Seco,25,Cundinamarca,4.9166667,-74.6666667
"25718",Sasaima - Cundinamarca,,Sasaima,25,Cundinamarca,5,-74.45
"25736",Sesquilé - Cundinamarca,,Sesquilé,25,Cundinamarca,5.0833333,-73.8333333
"25740",Sibaté - Cundinamarca,,Sibaté,25,Cundinamarca,4.4913889,-74.2605556
"25743",Silvania - Cundinamarca,,Silvania,25,Cundinamarca,4.5,-74.3333333
"25745",Simijaca - Cundinamarca,,Simijaca,25,Cundinamarca,5.5833333,-73.8333333
"25754",Soacha - Cundinamarca,,Soacha,25,Cundinamarca,4.5872222,-74.2213889
"25758",Sopó - Cundinamarca,,Sopó,25,Cundinamarca,4.9166667,-73.95
"25769",Subachoque - Cundinamarca,,Subachoque,25,Cundinamarca,5,-74.1666667
"25772",Suesca - Cundinamarca,,Suesca,25,Cundinamarca,5.1666667,-73.8333333
"25777",Supatá - Cundinamarca,,Supatá,25,Cundinamarca,5.0833333,-74.25
"25779",Susa - Cundinamarca,,Susa,25,Cundinamarca,5.5,-73.8333333
"25781",Sutatausa - Cundinamarca,,Sutatausa,25,Cundinamarca,5251,-73856
"25785",Tabio - Cundinamarca,,Tabio,25,Cundinamarca,5,-74.0833333
"25793",Tausa - Cundinamarca,,Tausa,25,Cundinamarca,5.25,-73.9166667
"25797",Tena - Cundinamarca,,Tena,25,Cundinamarca,4.7,-74.4166667
"25799",Tenjo - Cundinamarca,,Tenjo,25,Cundinamarca,4.9166667,-74.1666667
"25805",Tibacuy - Cundinamarca,,Tibacuy,25,Cundinamarca,4.3833333,-74.5
"25807",Tibirita - Cundinamarca,,Tibirita,25,Cundinamarca,5.1333333,-73.5333333
"25815",Tocaima - Cundinamarca,,Tocaima,25,Cundinamarca,4.5,-74.6666667
"25817",Tocancipá - Cundinamarca,,Tocancipá,25,Cundinamarca,5,-73.9166667
"25823",Topaipí - Cundinamarca,,Topaipí,25,Cundinamarca,5.4166667,-74.3333333
"25839",Ubalá - Cundinamarca,,Ubalá,25,Cundinamarca,4.8333333,-73.5
"25841",Ubaque - Cundinamarca,,Ubaque,25,Cundinamarca,4.5833333,-74
"25843",Ubaté - Cundinamarca,,Ubaté,25,Cundinamarca,5.35,-73.8333333
"25845",Une - Cundinamarca,,Une,25,Cundinamarca,4.3333333,-74.0833333
"25506",Venecia (Ospina Pérez) - Cundinamarca,,Venecia (Ospina Pérez),25,Cundinamarca,4.1333333,-74.5
"25862",Vergara - Cundinamarca,,Vergara,25,Cundinamarca,5.1666667,-74.3333333
"25867",Viani - Cundinamarca,,Viani,25,Cundinamarca,4.9166667,-74.55
"25871",Villagómez - Cundinamarca,,Villagómez,25,Cundinamarca,5.2761111,-74.1988889
"25873",Villapinzón - Cundinamarca,,Villapinzón,25,Cundinamarca,5.2833333,-73.5833333
"25875",Villeta - Cundinamarca,,Villeta,25,Cundinamarca,5.0833333,-74.5
"25878",Viotá - Cundinamarca,,Viotá,25,Cundinamarca,4.5,-74.5
"25885",Yacopí - Cundinamarca,,Yacopí,25,Cundinamarca,5.6666667,-74.4166667
"25888",Zipacón - Cundinamarca,,Zipacón,25,Cundinamarca,4.8333333,-74.4166667
"25899",Zipaquirá - Cundinamarca,,Zipaquirá,25,Cundinamarca,5.0283333,-74.0058333
"25851",Útica - Cundinamarca,,Útica,25,Cundinamarca,5.25,-74.5
"94001",Inírida - Guainía,,Inírida,94,Guainía,3.8652778,-67.9238889
"95015",Calamar - Guaviare,,Calamar,95,Guaviare,1.9597222,-72.6538889
"95025",El Retorno - Guaviare,,El Retorno,95,Guaviare,2.3305556,-72.6277778
"95200",Miraflores - Guaviare,,Miraflores,95,Guaviare,1.3366667,-71.9511111
"95001",San José del Guaviare - Guaviare,,San José del Guaviare,95,Guaviare,2.5683333,-72.6416667
"41006",Acevedo - Huila,,Acevedo,41,Huila,1.75,-75.9166667
"41013",Agrado - Huila,,Agrado,41,Huila,2.3333333,-75.75
"41016",Aipe - Huila,,Aipe,41,Huila,3.25,-75.3333333
"41020",Algeciras - Huila,,Algeciras,41,Huila,2.5833333,-75.25
"41026",Altamira - Huila,,Altamira,41,Huila,2.1666667,-75.8333333
"41078",Baraya - Huila,,Baraya,41,Huila,3.1666667,-75
"41132",Campoalegre - Huila,,Campoalegre,41,Huila,2.6666667,-75.3333333
"41206",Colombia - Huila,,Colombia,41,Huila,2.5,-75.75
"41244",Elías - Huila,,Elías,41,Huila,2.0833333,-76
"41298",Garzón - Huila,,Garzón,41,Huila,2.25,-75.5833333
"41306",Gigante - Huila,,Gigante,41,Huila,2.5,-75.5
"41319",Guadalupe - Huila,,Guadalupe,41,Huila,2.0833333,-75.6666667
"41349",Hobo - Huila,,Hobo,41,Huila,2.5833333,-75.5
"41359",Isnos - Huila,,Isnos,41,Huila,2.0833333,-76.25
"41378",La Argentina - Huila,,La Argentina,41,Huila,2.25,-76.1666667
"41396",La Plata - Huila,,La Plata,41,Huila,2.4166667,-76.1666667
"41001",Neiva - Huila,,Neiva,41,Huila,2.9305556,-75.3302778
"41483",Nátaga - Huila,,Nátaga,41,Huila,2.65,-75.8
"41503",Oporapa - Huila,,Oporapa,41,Huila,2.0833333,-76.0166667
"41518",Paicol - Huila,,Paicol,41,Huila,2.45,-75.75
"41524",Palermo - Huila,,Palermo,41,Huila,3,-75.5
"41530",Palestina - Huila,,Palestina,41,Huila,1.75,-76.0666667
"41548",Pital - Huila,,Pital,41,Huila,2.3333333,-75.8333333
"41551",Pitalito - Huila,,Pitalito,41,Huila,1.75,-76.1666667
"41615",Rivera - Huila,,Rivera,41,Huila,2.8333333,-75.1666667
"41660",Saladoblanco - Huila,,Saladoblanco,41,Huila,2.0144444,-76.0502778
"41668",San Agustín - Huila,,San Agustín,41,Huila,1.9166667,-76.3333333
"41676",Santa María - Huila,,Santa María,41,Huila,3,-75.7
"41770",Suaza - Huila,,Suaza,41,Huila,1.9166667,-75.8333333
"41791",Tarqui - Huila,,Tarqui,41,Huila,2.1666667,-75.9166667
"41799",Tello - Huila,,Tello,41,Huila,3.0833333,-75.0833333
"41801",Teruel - Huila,,Teruel,41,Huila,2.9166667,-75.6666667
"41797",Tesalia - Huila,,Tesalia,41,Huila,2.6666667,-75.75
"41807",Timaná - Huila,,Timaná,41,Huila,2,-75.9166667
"41872",Villavieja - Huila,,Villavieja,41,Huila,3.3333333,-75.1666667
"41885",Yaguará - Huila,,Yaguará,41,Huila,2.6666667,-75.5833333
"41357",Íquira - Huila,,Íquira,41,Huila,2.75,-75.75
"44035",Albania - La Guajira,,Albania,44,La Guajira,11.1597222,-72.5855556
"44078",Barrancas - La Guajira,,Barrancas,44,La Guajira,11,-72.75
"44090",Dibulla - La Guajira,,Dibulla,44,La Guajira,11.2722222,-73.3055556
"44098",Distracción - La Guajira,,Distracción,44,La Guajira,10.8977778,-72.8869444
"44110",El Molino - La Guajira,,El Molino,44,La Guajira,10.6533333,-72.9241667
"44279",Fonseca - La Guajira,,Fonseca,44,La Guajira,10.8333333,-72.8333333
"44378",Hatonuevo - La Guajira,,Hatonuevo,44,La Guajira,11.0694444,-72.7669444
"44420",La Jagua del Pilar - La Guajira,,La Jagua del Pilar,44,La Guajira,10.5166667,-73.0833333
"44430",Maicao - La Guajira,,Maicao,44,La Guajira,11.3841667,-72.2441667
"44560",Manaure - La Guajira,,Manaure,44,La Guajira,11.7791667,-72.4494444
"44001",Riohacha - La Guajira,,Riohacha,44,La Guajira,11.5444444,-72.9072222
"44650",San Juan del Cesar - La Guajira,,San Juan del Cesar,44,La Guajira,10.8333333,-73.0833333
"44847",Uribia - La Guajira,,Uribia,44,La Guajira,11.9166667,-72
"44855",Urumita - La Guajira,,Urumita,44,La Guajira,10.5666667,-73.0166667
"44874",Villanueva - La Guajira,,Villanueva,44,La Guajira,10.5833333,-73
"47030",Algarrobo - Magdalena,,Algarrobo,47,Magdalena,10.1869444,-74.5752778
"47053",Aracataca - Magdalena,,Aracataca,47,Magdalena,10.5833333,-74
"47058",Ariguaní (El Difícil) - Magdalena,,Ariguaní (El Difícil),47,Magdalena,10.25,-74
"47161",Cerro San Antonio - Magdalena,,Cerro San Antonio,47,Magdalena,10.25,-74.8333333
"47170",Chivolo - Magdalena,,Chivolo,47,Magdalena,10.0280556,-74.6436111
"47189",Ciénaga - Magdalena,,Ciénaga,47,Magdalena,10.8333333,-74.0833333
"47205",Concordia - Magdalena,,Concordia,47,Magdalena,9.8402778,-74.4447222
"47245",El Banco - Magdalena,,El Banco,47,Magdalena,9.0455556,-73.9747222
"47258",El Piñon - Magdalena,,El Piñon,47,Magdalena,10.3333333,-74.6666667
"47268",El Retén - Magdalena,,El Retén,47,Magdalena,10.6166667,-74.2666667
"47288",Fundación - Magdalena,,Fundación,47,Magdalena,10.4166667,-73.9166667
"47318",Guamal - Magdalena,,Guamal,47,Magdalena,9.25,-74.1666667
"47460",Nueva Granada - Magdalena,,Nueva Granada,47,Magdalena,9.8030556,-74.3902778
"47441",Pedraza - Magdalena,,Pedraza,47,Magdalena,10.1666667,-74.75
"47545",Pijiño - Magdalena,,Pijiño,47,Magdalena,9.331389,-74.4497222
"47551",Pivijay - Magdalena,,Pivijay,47,Magdalena,10.4166667,-74.3333333
"47555",Plato - Magdalena,,Plato,47,Magdalena,9.8333333,-74.3333333
"47570",Puebloviejo - Magdalena,,Puebloviejo,47,Magdalena,10.9833333,-74.3333333
"47605",Remolino - Magdalena,,Remolino,47,Magdalena,10.6666667,-74.5833333
"47660",Sabanas de San Angel (SAN ANGEL) - Magdalena,,Sabanas de San Angel (SAN ANGEL),47,Magdalena,10033,-74217
"47675",Salamina - Magdalena,,Salamina,47,Magdalena,10.5,-74.7
"47692",San Sebastián de Buenavista - Magdalena,,San Sebastián de Buenavista,47,Magdalena,9.3333333,-74.3333333
"47703",San Zenón - Magdalena,,San Zenón,47,Magdalena,9.3333333,-74.3
"47707",Santa Ana - Magdalena,,Santa Ana,47,Magdalena,9.3166667,-74.5833333
"47720",Santa Bárbara de Pinto - Magdalena,,Santa Bárbara de Pinto,47,Magdalena,10.6,-74167
"47001",Santa Marta - Magdalena,,Santa Marta,47,Magdalena,11.2472222,-74.2016667
"47745",Sitionuevo - Magdalena,,Sitionuevo,47,Magdalena,10.9166667,-74.5833333
"47798",Tenerife - Magdalena,,Tenerife,47,Magdalena,10,-74.6666667
"47960",Zapayán (PUNTA DE PIEDRAS) - Magdalena,,Zapayán (PUNTA DE PIEDRAS),47,Magdalena,10171,-74719
"47980",Zona Bananera (PRADO - SEVILLA) - Magdalena,,Zona Bananera (PRADO - SEVILLA),47,Magdalena,10.764167,-74.157222
"50006",Acacías - Meta,,Acacías,50,Meta,3.9166667,-73.8333333
"50110",Barranca de Upía - Meta,,Barranca de Upía,50,Meta,4.5755556,-72.9611111
"50124",Cabuyaro - Meta,,Cabuyaro,50,Meta,4.2902778,-72.7905556
"50150",Castilla la Nueva - Meta,,Castilla la Nueva,50,Meta,3.8,-73.5833333
"50223",Cubarral - Meta,,Cubarral,50,Meta,3.7713889,-73.8377778
"50226",Cumaral - Meta,,Cumaral,50,Meta,4.25,-73.3333333
"50245",El Calvario - Meta,,El Calvario,50,Meta,4.4166667,-73.6666667
"50251",El Castillo - Meta,,El Castillo,50,Meta,3.5680556,-73.7838889
"50270",El Dorado - Meta,,El Dorado,50,Meta,2.7791667,-72.8719444
"50287",Fuente de Oro - Meta,,Fuente de Oro,50,Meta,3.4594444,-73.6127778
"50313",Granada - Meta,,Granada,50,Meta,3.5386111,-73.7005556
"50318",Guamal - Meta,,Guamal,50,Meta,3.9166667,-74
"50350",La Macarena - Meta,,La Macarena,50,Meta,2.8536111,-73.9436111
"50400",Lejanías - Meta,,Lejanías,50,Meta,3.5136111,-74.0516667
"50325",Mapiripán - Meta,,Mapiripán,50,Meta,2.8911111,-72.1322222
"50330",Mesetas - Meta,,Mesetas,50,Meta,3.3780556,-74.0447222
"50450",Puerto Concordia - Meta,,Puerto Concordia,50,Meta,2.6794444,-72.7608333
"50568",Puerto Gaitán - Meta,,Puerto Gaitán,50,Meta,4.3141667,-72.0825
"50577",Puerto Lleras - Meta,,Puerto Lleras,50,Meta,3,-72.5
"50573",Puerto López - Meta,,Puerto López,50,Meta,4.0833333,-72.9666667
"50590",Puerto Rico - Meta,,Puerto Rico,50,Meta,2.9383333,-73.2083333
"50606",Restrepo - Meta,,Restrepo,50,Meta,4.1666667,-73.4166667
"50680",San Carlos de Guaroa - Meta,,San Carlos de Guaroa,50,Meta,3.7122222,-73.2436111
"50683",San Juan de Arama - Meta,,San Juan de Arama,50,Meta,3.3463889,-73.8894444
"50686",San Juanito - Meta,,San Juanito,50,Meta,4.4586111,-73.6730556
"50689",San Martín - Meta,,San Martín,50,Meta,3.7,-73.7
"50370",Uribe - Meta,,Uribe,50,Meta,3254,-74358
"50001",Villavicencio - Meta,,Villavicencio,50,Meta,4.1533333,-73635
"50711",Vista Hermosa - Meta,,Vista Hermosa,50,Meta,3.0863889,-73.7513889
"52019",Albán (San José) - Nariño,,Albán (San José),52,Nariño,1.4744444,-77.0836111
"52022",Aldana - Nariño,,Aldana,52,Nariño,0.9166667,-77.6833333
"52036",Ancuya - Nariño,,Ancuya,52,Nariño,1.25,-77.5
"52051",Arboleda (Berruecos) - Nariño,,Arboleda (Berruecos),52,Nariño,1.5033333,-77.0877778
"52079",Barbacoas - Nariño,,Barbacoas,52,Nariño,1.5833333,-78
"52083",Belén - Nariño,,Belén,52,Nariño,1.5975,-77.0175
"52110",Buesaco - Nariño,,Buesaco,52,Nariño,1.25,-77.0833333
"52240",Chachaguí - Nariño,,Chachaguí,52,Nariño,1.3594305393,-77.2836685181
"52203",Colón (Génova) - Nariño,,Colón (Génova),52,Nariño,1.5833333,-77
"52207",Consaca - Nariño,,Consaca,52,Nariño,1.2084064973,-77.4632263184
"52210",Contadero - Nariño,,Contadero,52,Nariño,0.9166667,-77.5333333
"52224",Cuaspud (Carlosama) - Nariño,,Cuaspud (Carlosama),52,Nariño,0.8658333,-77.7294444
"52227",Cumbal - Nariño,,Cumbal,52,Nariño,0.9166667,-77.9166667
"52233",Cumbitara - Nariño,,Cumbitara,52,Nariño,1.6533333,-77.5833333
"52215",Córdoba - Nariño,,Córdoba,52,Nariño,0.7833333,-77.3333333
"52250",El Charco - Nariño,,El Charco,52,Nariño,2.3333333,-78.35
"52254",El Peñol - Nariño,,El Peñol,52,Nariño,1.4333333,-77.4333333
"52256",El Rosario - Nariño,,El Rosario,52,Nariño,1.8333333,-77.3333333
"52258",El Tablón de Gómez - Nariño,,El Tablón de Gómez,52,Nariño,1.426944,-77.096944
"52260",El Tambo - Nariño,,El Tambo,52,Nariño,1.4,-77.3333333
"52520",Francisco Pizarro - Nariño,,Francisco Pizarro,52,Nariño,2.1019444,-78.7216667
"52287",Funes - Nariño,,Funes,52,Nariño,0.95,-77.3333333
"52699",Guachavés - Nariño,,Guachavés,52,Nariño,1.2247222,-77.68
"52317",Guachucal - Nariño,,Guachucal,52,Nariño,1,-77.75
"52320",Guaitarilla - Nariño,,Guaitarilla,52,Nariño,1.15,-77.5
"52323",Gualmatán - Nariño,,Gualmatán,52,Nariño,0.8333333,-77.5833333
"52352",Iles - Nariño,,Iles,52,Nariño,0.95,-77.5333333
"52354",Imúes - Nariño,,Imúes,52,Nariño,1.05,-77.5
"52356",Ipiales - Nariño,,Ipiales,52,Nariño,0.8302778,-77.6444444
"52378",La Cruz - Nariño,,La Cruz,52,Nariño,1.55,-76.8833333
"52381",La Florida - Nariño,,La Florida,52,Nariño,1.25,-77.4166667
"52385",La Llanada - Nariño,,La Llanada,52,Nariño,1.4777778,-77.5838889
"52390",La Tola - Nariño,,La Tola,52,Nariño,2.4108333,-78.2427778
"52399",La Unión - Nariño,,La Unión,52,Nariño,1.5833333,-77.0833333
"52405",Leiva - Nariño,,Leiva,52,Nariño,1.9375,-77.3080556
"52411",Linares - Nariño,,Linares,52,Nariño,1.3833333,-77.45
"52427",Magüi (Payán) - Nariño,,Magüi (Payán),52,Nariño,1.9166667,-77.8333333
"52435",Mallama (Piedrancha) - Nariño,,Mallama (Piedrancha),52,Nariño,1.0833333,-77.8166667
"52473",Mosquera - Nariño,,Mosquera,52,Nariño,2.35,-78.35
"52480",Nariño - Nariño,,Nariño,52,Nariño,1.5,-78
"52490",Olaya Herrera - Nariño,,Olaya Herrera,52,Nariño,1.2666667,-77.4833333
"52506",Ospina - Nariño,,Ospina,52,Nariño,1.0333333,-77.55
"52540",Policarpa - Nariño,,Policarpa,52,Nariño,1.6316667,-77.4616667
"52560",Potosí - Nariño,,Potosí,52,Nariño,0.75,-77.4166667
"52565",Providencia - Nariño,,Providencia,52,Nariño,1.5702778,-77.4694444
"52573",Puerres - Nariño,,Puerres,52,Nariño,0.9166667,-77.25
"52585",Pupiales - Nariño,,Pupiales,52,Nariño,0.9166667,-77.6666667
"52612",Ricaurte - Nariño,,Ricaurte,52,Nariño,1.1666667,-78.1666667
"52621",Roberto Payán (San José) - Nariño,,Roberto Payán (San José),52,Nariño,1.9166667,-78.3333333
"52678",Samaniego - Nariño,,Samaniego,52,Nariño,1.4166667,-77.6666667
"52685",San Bernardo - Nariño,,San Bernardo,52,Nariño,1.5163889,-77.0466667
"52001",Pasto - Nariño,San Juan de Pasto - Nariño|San Juan de Pasto|Pasto|Pasto Nariño,Pasto,52,Nariño,1.2146707368,-77.2786474228
"52687",San Lorenzo - Nariño,,San Lorenzo,52,Nariño,1.5,-77.1666667
"52693",San Pablo - Nariño,,San Pablo,52,Nariño,1.6666667,-76.9166667
"52694",San Pedro de Cartago - Nariño,,San Pedro de Cartago,52,Nariño,1.5613889,-77.1180556
"52683",Sandoná - Nariño,,Sandoná,52,Nariño,1.25,-77.45
"52695",Santa Bárbara (Iscuandé) - Nariño,,Santa Bárbara (Iscuandé),52,Nariño,2.3333333,-77.9166667
"52720",Sapuyes - Nariño,,Sapuyes,52,Nariño,1.0333333,-77.6
"52418",Sotomayor (Los Andes) - Nariño,,Sotomayor (Los Andes),52,Nariño,1.5155556,-77495
"52786",Taminango - Nariño,,Taminango,52,Nariño,1.5833333,-77.25
"52788",Tangua - Nariño,,Tangua,52,Nariño,1.0833333,-77.3
"52835",Tumaco - Nariño,,Tumaco,52,Nariño,1.7986111,-78.8155556
"52838",Túquerres - Nariño,,Túquerres,52,Nariño,1.1666667,-77.5833333
"52885",Yacuanquer - Nariño,,Yacuanquer,52,Nariño,1.0833333,-77.4166667
"54051",Arboledas - Norte de Santander,,Arboledas,54,Norte de Santander,7.6666667,-72.75
"54099",Bochalema - Norte de Santander,,Bochalema,54,Norte de Santander,7.6666667,-72.5833333
"54109",Bucarasica - Norte de Santander,,Bucarasica,54,Norte de Santander,8.0833333,-73
"54172",Chinácota - Norte de Santander,,Chinácota,54,Norte de Santander,7.75,-72.55
"54174",Chitagá - Norte de Santander,,Chitagá,54,Norte de Santander,7.1666667,-72.5833333
"54206",Convención - Norte de Santander,,Convención,54,Norte de Santander,8.8333333,-73.2
"54223",Cucutilla - Norte de Santander,,Cucutilla,54,Norte de Santander,7.5,-72.75
"54128",Cáchira - Norte de Santander,,Cáchira,54,Norte de Santander,7.75,-73.1666667
"54125",Cácota - Norte de Santander,,Cácota,54,Norte de Santander,7.25,-72.5833333
"54001",Cúcuta - Norte de Santander,,Cúcuta,54,Norte de Santander,7.8833333,-72.5052778
"54239",Durania - Norte de Santander,,Durania,54,Norte de Santander,7.75,-72.6333333
"54245",El Carmen - Norte de Santander,,El Carmen,54,Norte de Santander,8.75,-73.3333333
"54250",El Tarra - Norte de Santander,,El Tarra,54,Norte de Santander,8.5847222,-73.0883333
"54261",El Zulia - Norte de Santander,,El Zulia,54,Norte de Santander,7.9355556,-72605
"54313",Gramalote - Norte de Santander,,Gramalote,54,Norte de Santander,7.9166667,-72.75
"54344",Hacarí - Norte de Santander,,Hacarí,54,Norte de Santander,8.5,-73.0833333
"54347",Herrán - Norte de Santander,,Herrán,54,Norte de Santander,7.5,-72.4666667
"54385",La Esperanza - Norte de Santander,,La Esperanza,54,Norte de Santander,8.1666667,-72.4666667
"54398",La Playa - Norte de Santander,,La Playa,54,Norte de Santander,8.25,-73.1666667
"54377",Labateca - Norte de Santander,,Labateca,54,Norte de Santander,7.3333333,-72.5
"54405",Los Patios - Norte de Santander,,Los Patios,54,Norte de Santander,7.8383333,-72.5133333
"54418",Lourdes - Norte de Santander,,Lourdes,54,Norte de Santander,7.9666667,-72.8333333
"54480",Mutiscua - Norte de Santander,,Mutiscua,54,Norte de Santander,7.3333333,-72.7166667
"54498",Ocaña - Norte de Santander,,Ocaña,54,Norte de Santander,8.25,-73.3
"54518",Pamplona - Norte de Santander,,Pamplona,54,Norte de Santander,7.3780556,-72.6525
"54520",Pamplonita - Norte de Santander,,Pamplonita,54,Norte de Santander,7.5,-72.5833333
"54553",Puerto Santander - Norte de Santander,,Puerto Santander,54,Norte de Santander,8.3636111,-72.4075
"54599",Ragonvalia - Norte de Santander,,Ragonvalia,54,Norte de Santander,7.5833333,-72.5
"54660",Salazar - Norte de Santander,,Salazar,54,Norte de Santander,7.8,-72.8333333
"54670",San Calixto - Norte de Santander,,San Calixto,54,Norte de Santander,8.75,-73.0333333
"54673",San Cayetano - Norte de Santander,,San Cayetano,54,Norte de Santander,7.8833333,-72.5833333
"54680",Santiago - Norte de Santander,,Santiago,54,Norte de Santander,7.9166667,-72.6666667
"54720",Sardinata - Norte de Santander,,Sardinata,54,Norte de Santander,8.25,-72.75
"54743",Silos - Norte de Santander,,Silos,54,Norte de Santander,7.2,-72.75
"54800",Teorama - Norte de Santander,,Teorama,54,Norte de Santander,8.75,-73.1666667
"54810",Tibú - Norte de Santander,,Tibú,54,Norte de Santander,8.6480556,-72.7394444
"54820",Toledo - Norte de Santander,,Toledo,54,Norte de Santander,7.3,-72.25
"54871",Villa Caro - Norte de Santander,,Villa Caro,54,Norte de Santander,7.9169444,-72.9763889
"54874",Villa del Rosario - Norte de Santander,,Villa del Rosario,54,Norte de Santander,7.8338889,-72.4741667
"54003",Ábrego - Norte de Santander,,Ábrego,54,Norte de Santander,8,-73.2
"86219",Colón - Putumayo,,Colón,86,Putumayo,1.1936111,-76.9769444
"86001",Mocoa - Putumayo,,Mocoa,86,Putumayo,1.1488889,-76.6477778
"86320",Orito - Putumayo,,Orito,86,Putumayo,0.6966667,-76.8747222
"86568",Puerto Asís - Putumayo,,Puerto Asís,86,Putumayo,0.5158333,-76495
"86569",Puerto Caicedo - Putumayo,,Puerto Caicedo,86,Putumayo,0.6838889,-76.5858333
"86571",Puerto Guzmán - Putumayo,,Puerto Guzmán,86,Putumayo,0.9702778,-76.5858333
"86573",Puerto Leguízamo - Putumayo,,Puerto Leguízamo,86,Putumayo,-0.2,-74.7666667
"86755",San Francisco - Putumayo,,San Francisco,86,Putumayo,1.1772222,-76.8830556
"86757",San Miguel - Putumayo,,San Miguel,86,Putumayo,0.3394444,-76.8830556
"86760",Santiago - Putumayo,,Santiago,86,Putumayo,1.1511111,-77.0075
"86749",Sibundoy - Putumayo,,Sibundoy,86,Putumayo,1.1833333,-76.9166667
"86865",Valle del Guamuez - Putumayo,,Valle del Guamuez,86,Putumayo,0.4525,-76.9191667
"86885",Villagarzón - Putumayo,,Villagarzón,86,Putumayo,1038,-76627
"63001",Armenia - Quindío,,Armenia,63,Quindío,4.5338889,-75.6811111
"63111",Buenavista - Quindío,,Buenavista,63,Quindío,4.3622222,-75.7394444
"63130",Calarcá - Quindío,,Calarcá,63,Quindío,4.5325,-75.6436111
"63190",Circasia - Quindío,,Circasia,63,Quindío,4.6166667,-75.6333333
"63212",Cordobá - Quindío,,Cordobá,63,Quindío,4.3905556,-75.6888889
"63272",Filandia - Quindío,,Filandia,63,Quindío,4.6666667,-75.6333333
"63302",Génova - Quindío,,Génova,63,Quindío,4.25,-75.6666667
"63401",La Tebaida - Quindío,,La Tebaida,63,Quindío,4.45,-75.8
"63470",Montenegro - Quindío,,Montenegro,63,Quindío,4.5,-75.8
"63548",Pijao - Quindío,,Pijao,63,Quindío,4.3333333,-75.6666667
"63594",Quimbaya - Quindío,,Quimbaya,63,Quindío,4.6333333,-75.75
"63690",Salento - Quindío,,Salento,63,Quindío,4.6666667,-75.5
"66045",Apía - Risaralda,,Apía,66,Risaralda,5.1666667,-76
"66075",Balboa - Risaralda,,Balboa,66,Risaralda,4.9166667,-75.95
"66088",Belén de Umbría - Risaralda,,Belén de Umbría,66,Risaralda,5.25,-75.9166667
"66170",Dos Quebradas - Risaralda,,Dos Quebradas,66,Risaralda,4.8347222,-75.6725
"66318",Guática - Risaralda,,Guática,66,Risaralda,5.3333333,-75.8333333
"66383",La Celia - Risaralda,,La Celia,66,Risaralda,4.9666667,-76
"66400",La Virginia - Risaralda,,La Virginia,66,Risaralda,4.9166667,-75.8333333
"66440",Marsella - Risaralda,,Marsella,66,Risaralda,4.9166667,-75.75
"66456",Mistrató - Risaralda,,Mistrató,66,Risaralda,5.4166667,-76
"66001",Pereira - Risaralda,,Pereira,66,Risaralda,4.8133333,-75.6961111
"66572",Pueblo Rico - Risaralda,,Pueblo Rico,66,Risaralda,5.25,-76.1666667
"66594",Quinchía - Risaralda,,Quinchía,66,Risaralda,5.3333333,-75.6666667
"66682",Santa Rosa de Cabal - Risaralda,,Santa Rosa de Cabal,66,Risaralda,4.8680556,-75.6213889
"66687",Santuario - Risaralda,,Santuario,66,Risaralda,5.0833333,-76
"88564",Providencia - San Andrés,,Providencia,88,San Andrés,12.5,-81.75
"68013",Aguada - Santander,,Aguada,68,Santander,6.25,-73.4666667
"68020",Albania - Santander,,Albania,68,Santander,5.8333333,-73.75
"68051",Aratoca - Santander,,Aratoca,68,Santander,6.8333333,-72.9666667
"68077",Barbosa - Santander,,Barbosa,68,Santander,6,-73.55
"68079",Barichara - Santander,,Barichara,68,Santander,6.75,-73.1666667
"68081",Barrancabermeja - Santander,,Barrancabermeja,68,Santander,7.0652778,-73.8547222
"68092",Betulia - Santander,,Betulia,68,Santander,7.0833333,-73.3333333
"68101",Bolívar - Santander,,Bolívar,68,Santander,6.25,-74
"68001",Bucaramanga - Santander,,Bucaramanga,68,Santander,7.1297222,-73.1258333
"68121",Cabrera - Santander,,Cabrera,68,Santander,6.6333333,-73.2
"68132",California - Santander,,California,68,Santander,7.4166667,-72.85
"68147",Capitanejo - Santander,,Capitanejo,68,Santander,6.6,-72.6333333
"68152",Carcasí - Santander,,Carcasí,68,Santander,6.8333333,-72.5
"68160",Cepita - Santander,,Cepita,68,Santander,6.8333333,-72.9166667
"68162",Cerrito - Santander,,Cerrito,68,Santander,7,-72.5833333
"68167",Charalá - Santander,,Charalá,68,Santander,6.25,-73.0833333
"68169",Charta - Santander,,Charta,68,Santander,7.3,-72.9666667
"68176",Chima - Santander,,Chima,68,Santander,6.4166667,-73.3333333
"68179",Chipatá - Santander,,Chipatá,68,Santander,6.1333333,-73.55
"68190",Cimitarra - Santander,,Cimitarra,68,Santander,6.3161111,-73.9505556
"68207",Concepción - Santander,,Concepción,68,Santander,6.9166667,-72.5
"68209",Confines - Santander,,Confines,68,Santander,6.4166667,-73.1666667
"68211",Contratación - Santander,,Contratación,68,Santander,6.3333333,-73.4166667
"68217",Coromoro - Santander,,Coromoro,68,Santander,6.3333333,-73
"68229",Curití - Santander,,Curití,68,Santander,6.6666667,-73
"68235",El Carmen - Santander,,El Carmen,68,Santander,6698,-73511
"68245",El Guacamayo - Santander,,El Guacamayo,68,Santander,6.3333333,-73.4666667
"68250",El Peñon - Santander,,El Peñon,68,Santander,6.55,-72.8333333
"68255",El Playón - Santander,,El Playón,68,Santander,7.4766667,-73.2080556
"68264",Encino - Santander,,Encino,68,Santander,6.1666667,-73
"68266",Enciso - Santander,,Enciso,68,Santander,6.75,-72.6333333
"68276",Floridablanca - Santander,,Floridablanca,68,Santander,7.0647222,-73.0897222
"68271",Florián - Santander,,Florián,68,Santander,5.8047222,-73.9741667
"68296",Galán - Santander,,Galán,68,Santander,6.7,-73.3
"68306",Girón - Santander,,Girón,68,Santander,7.0708333,-73.1730556
"68318",Guaca - Santander,,Guaca,68,Santander,7,-72.7666667
"68320",Guadalupe - Santander,,Guadalupe,68,Santander,6.3,-73.3333333
"68322",Guapota - Santander,,Guapota,68,Santander,6.3833333,-73.25
"68324",Guavatá - Santander,,Guavatá,68,Santander,6,-73.65
"68327",Guepsa - Santander,,Guepsa,68,Santander,6.0833333,-73.5
"68298",Gámbita - Santander,,Gámbita,68,Santander,6,-73.25
"68344",Hato - Santander,,Hato,68,Santander,6.5833333,-73.3333333
"68368",Jesús María - Santander,,Jesús María,68,Santander,5.9166667,-73.8333333
"68370",Jordán - Santander,,Jordán,68,Santander,6.75,-73.0666667
"68377",La Belleza - Santander,,La Belleza,68,Santander,5.8613889,-73.9683333
"68397",La Paz - Santander,,La Paz,68,Santander,6.25,-73.4666667
"68385",Landázuri - Santander,,Landázuri,68,Santander,6.2238889,-73.8127778
"68406",Lebrija - Santander,,Lebrija,68,Santander,7.4166667,-73.4166667
"68418",Los Santos - Santander,,Los Santos,68,Santander,6.9166667,-73.0833333
"68425",Macaravita - Santander,,Macaravita,68,Santander,6.5833333,-72.5333333
"68444",Matanza - Santander,,Matanza,68,Santander,7.4166667,-73.0833333
"68464",Mogotes - Santander,,Mogotes,68,Santander,6.5833333,-72.9166667
"68468",Molagavita - Santander,,Molagavita,68,Santander,6.75,-72.75
"68432",Málaga - Santander,,Málaga,68,Santander,6.7833333,-72.6666667
"68498",Ocamonte - Santander,,Ocamonte,68,Santander,6.4166667,-73.0833333
"68500",Oiba - Santander,,Oiba,68,Santander,6.3,-73.25
"68502",Onzaga - Santander,,Onzaga,68,Santander,6.3333333,-72.75
"68522",Palmar - Santander,,Palmar,68,Santander,6.5833333,-73.25
"68524",Palmas del Socorro - Santander,,Palmas del Socorro,68,Santander,6.45,-73.25
"68547",Pie de Cuesta - Santander,,Pie de Cuesta,68,Santander,5.8383333,-74.0366667
"68549",Pinchote - Santander,,Pinchote,68,Santander,6.5833333,-73.1666667
"68572",Puente Nacional - Santander,,Puente Nacional,68,Santander,5.9166667,-73.5833333
"68573",Puerto Parra - Santander,,Puerto Parra,68,Santander,6.6516667,-74.0608333
"68575",Puerto Wilches - Santander,,Puerto Wilches,68,Santander,7.5833333,-73.6666667
"68533",Páramo - Santander,,Páramo,68,Santander,6.5,-73.1333333
"68615",Rio Negro - Santander,,Rio Negro,68,Santander,7.2191667,-73.1558333
"68655",Sabana de Torres - Santander,,Sabana de Torres,68,Santander,7.3980556,-73.4969444
"68669",San Andrés - Santander,,San Andrés,68,Santander,6.8333333,-72.75
"68673",San Benito - Santander,,San Benito,68,Santander,6.1666667,-73.4666667
"68679",San Gil - Santander,,San Gil,68,Santander,6.5833333,-73.0833333
"68682",San Joaquín - Santander,,San Joaquín,68,Santander,6.4333333,-72.8666667
"68686",San José de Miranda - Santander,,San José de Miranda,68,Santander,6.7,-72.6666667
"68684",San Miguel - Santander,,San Miguel,68,Santander,6.6666667,-72.55
"68689",San Vicente del Chucurí - Santander,,San Vicente del Chucurí,68,Santander,6.8836111,-73.4138889
"68705",Santa Bárbara - Santander,,Santa Bárbara,68,Santander,6.9927778,-72.9102778
"68720",Santa Helena del Opón - Santander,,Santa Helena del Opón,68,Santander,6.3375,-73.5919444
"68745",Simacota - Santander,,Simacota,68,Santander,6.4472222,-73.3413889
"68755",Socorro - Santander,,Socorro,68,Santander,6.5333333,-73.2
"68770",Suaita - Santander,,Suaita,68,Santander,6.1666667,-73.3
"68773",Sucre - Santander,,Sucre,68,Santander,6.0833333,-73.9166667
"68780",Suratá - Santander,,Suratá,68,Santander,7.5,-72.9666667
"68820",Tona - Santander,,Tona,68,Santander,7.25,-72.9
"68855",Valle de San José - Santander,,Valle de San José,68,Santander,6.5,-73.0666667
"68867",Vetas - Santander,,Vetas,68,Santander,7.3333333,-72.8666667
"68872",Villanueva - Santander,,Villanueva,68,Santander,6.6741667,-73.1777778
"68861",Vélez - Santander,,Vélez,68,Santander,6.0833333,-73.5833333
"68895",Zapatoca - Santander,,Zapatoca,68,Santander,6.8333333,-73.25
"70110",Buenavista - Sucre,,Buenavista,70,Sucre,9.3222222,-74.9772222
"70124",Caimito - Sucre,,Caimito,70,Sucre,8.8333333,-75.1666667
"70230",Chalán - Sucre,,Chalán,70,Sucre,9.5491667,-75.3161111
"70204",Colosó (Ricaurte) - Sucre,,Colosó (Ricaurte),70,Sucre,9.4966667,-75.3555556
"70215",Corozal - Sucre,,Corozal,70,Sucre,9.3333333,-75.25
"70221",Coveñas - Sucre,,Coveñas,70,Sucre,9.4166667,-75.7
"70233",El Roble - Sucre,,El Roble,70,Sucre,9.1,-75.2
"70235",Galeras (Nueva Granada) - Sucre,,Galeras (Nueva Granada),70,Sucre,9.1630556,-75.0525
"70265",Guaranda - Sucre,,Guaranda,70,Sucre,8.4697222,-75.5383333
"70400",La Unión - Sucre,,La Unión,70,Sucre,8.8605556,-75.2805556
"70418",Los Palmitos - Sucre,,Los Palmitos,70,Sucre,9.3811111,-75.2713889
"70429",Majagual - Sucre,,Majagual,70,Sucre,8.5,-74.6666667
"70473",Morroa - Sucre,,Morroa,70,Sucre,9.4166667,-75.3333333
"70508",Ovejas - Sucre,,Ovejas,70,Sucre,9.5,-75.1666667
"70523",Palmito - Sucre,,Palmito,70,Sucre,9.3333333,-75.55
"70670",Sampués - Sucre,,Sampués,70,Sucre,9.1666667,-75.3
"70678",San Benito Abad - Sucre,,San Benito Abad,70,Sucre,8.75,-74.9166667
"70702",San Juan de Betulia - Sucre,,San Juan de Betulia,70,Sucre,9.2755556,-75.2455556
"70708",San Marcos - Sucre,,San Marcos,70,Sucre,8.5833333,-75.1666667
"70713",San Onofre - Sucre,,San Onofre,70,Sucre,9.8333333,-75.5
"70717",San Pedro - Sucre,,San Pedro,70,Sucre,9.4166667,-75
"70001",Sincelejo - Sucre,,Sincelejo,70,Sucre,9.3047222,-75.3977778
"70742",Sincé - Sucre,,Sincé,70,Sucre,9.1666667,-75
"70771",Sucre - Sucre,,Sucre,70,Sucre,9,-75
"70820",Tolú - Sucre,,Tolú,70,Sucre,9.5,-75.5333333
"70823",Tolú Viejo - Sucre,,Tolú Viejo,70,Sucre,9.451944,-75.439444
"73024",Alpujarra - Tolima,,Alpujarra,73,Tolima,3.4166667,-74.9166667
"73026",Alvarado - Tolima,,Alvarado,73,Tolima,4.5833333,-75
"73030",Ambalema - Tolima,,Ambalema,73,Tolima,4.8333333,-74.8333333
"73043",Anzoátegui - Tolima,,Anzoátegui,73,Tolima,4.6666667,-75.25
"73055",Armero (Guayabal) - Tolima,,Armero (Guayabal),73,Tolima,5.0833333,-74.8333333
"73067",Ataco - Tolima,,Ataco,73,Tolima,3.3333333,-75.6666667
"73124",Cajamarca - Tolima,,Cajamarca,73,Tolima,4.4166667,-75.5
"73148",Carmen de Apicalá - Tolima,,Carmen de Apicalá,73,Tolima,4.15,-74.7333333
"73152",Casabianca - Tolima,,Casabianca,73,Tolima,5.0833333,-75.1666667
"73168",Chaparral - Tolima,,Chaparral,73,Tolima,3.75,-75.5833333
"73200",Coello - Tolima,,Coello,73,Tolima,4.3333333,-74.9166667
"73217",Coyaima - Tolima,,Coyaima,73,Tolima,3.8333333,-75.0833333
"73226",Cunday - Tolima,,Cunday,73,Tolima,4.0833333,-74.6666667
"73236",Dolores - Tolima,,Dolores,73,Tolima,3.6666667,-74.75
"73268",Espinal - Tolima,,Espinal,73,Tolima,4.2,-74.8333333
"73270",Falan - Tolima,,Falan,73,Tolima,5.1333333,-75
"73275",Flandes - Tolima,,Flandes,73,Tolima,4.25,-74.8333333
"73283",Fresno - Tolima,,Fresno,73,Tolima,5.1666667,-75.0833333
"73319",Guamo - Tolima,,Guamo,73,Tolima,4.0833333,-74.9166667
"73347",Herveo - Tolima,,Herveo,73,Tolima,5.0833333,-75.1666667
"73349",Honda - Tolima,,Honda,73,Tolima,5.25,-74.8333333
"73001",Ibagué - Tolima,,Ibagué,73,Tolima,4.4388889,-75.2322222
"73352",Icononzo - Tolima,,Icononzo,73,Tolima,4.1666667,-74.55
"73408",Lérida - Tolima,,Lérida,73,Tolima,4.9166667,-74.9166667
"73411",Líbano - Tolima,,Líbano,73,Tolima,4.9166667,-75.1666667
"73443",Mariquita - Tolima,,Mariquita,73,Tolima,5.25,-74.9166667
"73449",Melgar - Tolima,,Melgar,73,Tolima,4.25,-74.5833333
"73461",Murillo - Tolima,,Murillo,73,Tolima,4.8769444,-75.1738889
"73483",Natagaima - Tolima,,Natagaima,73,Tolima,3.5833333,-75.0833333
"73504",Ortega - Tolima,,Ortega,73,Tolima,3.9166667,-75.25
"73520",Palocabildo - Tolima,,Palocabildo,73,Tolima,5.1333333,-75.0333333
"73547",Piedras - Tolima,,Piedras,73,Tolima,4.5,-74.9166667
"73555",Planadas - Tolima,,Planadas,73,Tolima,3.25,-75.75
"73563",Prado - Tolima,,Prado,73,Tolima,3.75,-74.8333333
"73585",Purificación - Tolima,,Purificación,73,Tolima,3.9166667,-74.9166667
"73616",Rioblanco - Tolima,,Rioblanco,73,Tolima,3.5,-75.8333333
"73622",Roncesvalles - Tolima,,Roncesvalles,73,Tolima,4.0833333,-75.5833333
"73624",Rovira - Tolima,,Rovira,73,Tolima,4.25,-75.3333333
"73671",Saldaña - Tolima,,Saldaña,73,Tolima,3.9347222,-75.0202778
"73675",San Antonio - Tolima,,San Antonio,73,Tolima,3.9166667,-75.5
"73678",San Luis - Tolima,,San Luis,73,Tolima,4.1666667,-75.0833333
"73686",Santa Isabel - Tolima,,Santa Isabel,73,Tolima,4.75,-75.1666667
"73770",Suárez - Tolima,,Suárez,73,Tolima,4.0833333,-74.7833333
"73854",Valle de San Juan - Tolima,,Valle de San Juan,73,Tolima,4.25,-75.1666667
"73861",Venadillo - Tolima,,Venadillo,73,Tolima,4.75,-74.9166667
"73870",Villahermosa - Tolima,,Villahermosa,73,Tolima,5,-75.1666667
"73873",Villarrica - Tolima,,Villarrica,73,Tolima,4,-74.5833333
"76020",Alcalá - Valle del Cauca,,Alcalá,76,Valle del Cauca,4.6666667,-75.75
"76036",Andalucía - Valle del Cauca,,Andalucía,76,Valle del Cauca,4.1741667,-76.1702778
"76041",Ansermanuevo - Valle del Cauca,,Ansermanuevo,76,Valle del Cauca,4.7972222,-75995
"76054",Argelia - Valle del Cauca,,Argelia,76,Valle del Cauca,4.7,-76.1333333
"76100",Bolívar - Valle del Cauca,,Bolívar,76,Valle del Cauca,4.3333333,-76.3333333
"76109",Buenaventura - Valle del Cauca,,Buenaventura,76,Valle del Cauca,3.8933333,-77.0697222
"76111",Buga - Valle del Cauca,,Buga,76,Valle del Cauca,3.9022222,-76.3027778
"76113",Bugalagrande - Valle del Cauca,,Bugalagrande,76,Valle del Cauca,4.2094444,-76.1602778
"76122",Caicedonia - Valle del Cauca,,Caicedonia,76,Valle del Cauca,4.3336591746,-75.8342456818
"76126",Calima (Darién) - Valle del Cauca,,Calima (Darién),76,Valle del Cauca,3.9166667,-76.6666667
"76001",Cali - Valle del Cauca,Santiago de Cali|Cali Valle,Cali,76,Valle del Cauca,3.4372222,-76.5225
"76130",Candelaria - Valle del Cauca,,Candelaria,76,Valle del Cauca,3.4130556,-76.3511111
"76147",Cartago - Valle del Cauca,,Cartago,76,Valle del Cauca,4.7463889,-75.9116667
"76233",Dagua - Valle del Cauca,,Dagua,76,Valle del Cauca,3.6602778,-76.6927778
"76246",El Cairo - Valle del Cauca,,El Cairo,76,Valle del Cauca,4.75,-76.25
"76248",El Cerrito - Valle del Cauca,,El Cerrito,76,Valle del Cauca,3.6666667,-76.1666667
"76250",El Dovio - Valle del Cauca,,El Dovio,76,Valle del Cauca,4.5,-76.25
"76243",El Águila - Valle del Cauca,,El Águila,76,Valle del Cauca,4.9166667,-76.0833333
"76275",Florida - Valle del Cauca,,Florida,76,Valle del Cauca,3.3275,-76.2386111
"76306",Ginebra - Valle del Cauca,,Ginebra,76,Valle del Cauca,3.75,-76.1666667
"76318",Guacarí - Valle del Cauca,,Guacarí,76,Valle del Cauca,3.7694444,-76.3380556
"76364",Jamundí - Valle del Cauca,,Jamundí,76,Valle del Cauca,3.1666667,-76.5833333
"76677",La Cumbre - Valle del Cauca,,La Cumbre,76,Valle del Cauca,3.6666667,-76.5833333
"76400",La Unión - Valle del Cauca,,La Unión,76,Valle del Cauca,4.5358333,-76.1066667
"76403",La Victoria - Valle del Cauca,,La Victoria,76,Valle del Cauca,4.5238889,-76.0411111
"76497",Obando - Valle del Cauca,,Obando,76,Valle del Cauca,4.5833333,-75.9166667
"76520",Palmira - Valle del Cauca,,Palmira,76,Valle del Cauca,3.5394444,-76.3036111
"76563",Pradera - Valle del Cauca,,Pradera,76,Valle del Cauca,3.4211111,-76.2447222
"76606",Restrepo - Valle del Cauca,,Restrepo,76,Valle del Cauca,3.7833333,-76.5
"76616",Riofrío - Valle del Cauca,,Riofrío,76,Valle del Cauca,4.0833333,-76.3333333
"76622",Roldanillo - Valle del Cauca,,Roldanillo,76,Valle del Cauca,4.4147222,-76.1547222
"76670",San Pedro - Valle del Cauca,,San Pedro,76,Valle del Cauca,4,-76.1666667
"76736",Sevilla - Valle del Cauca,,Sevilla,76,Valle del Cauca,4.2688889,-75.9361111
"76823",Toro - Valle del Cauca,,Toro,76,Valle del Cauca,4.6116667,-76.0813889
"76828",Trujillo - Valle del Cauca,,Trujillo,76,Valle del Cauca,4.25,-76.3333333
"76834",Tuluá - Valle del Cauca,,Tuluá,76,Valle del Cauca,4.0866667,-76.2
"76845",Ulloa - Valle del Cauca,,Ulloa,76,Valle del Cauca,4.7166667,-75.75
"76863",Versalles - Valle del Cauca,,Versalles,76,Valle del Cauca,4.6666667,-76.25
"76869",Vijes - Valle del Cauca,,Vijes,76,Valle del Cauca,3.6986111,-76.4491667
"76890",Yotoco - Valle del Cauca,,Yotoco,76,Valle del Cauca,3.9166667,-76.3333333
"76892",Yumbo - Valle del Cauca,,Yumbo,76,Valle del Cauca,3585,-76.4958333
"76895",Zarzal - Valle del Cauca,,Zarzal,76,Valle del Cauca,4.3983333,-76.0772222
"97161",Carurú - Vaupés,,Carurú,97,Vaupés,0.9166667,-70.7333333
"97001",Mitú - Vaupés,,Mitú,97,Vaupés,1.1983333,-70.1733333
"97666",Taraira - Vaupés,,Taraira,97,Vaupés,0.4938889,-69.6669444
"99773",Cumaribo - Vichada,,Cumaribo,99,Vichada,4.4444444,-69.8002778
"99524",La Primavera - Vichada,,La Primavera,99,Vichada,5.4905556,-70.4091667
"99001",Puerto Carreño - Vichada,,Puerto Carreño,99,Vichada,6.1877778,-67.4730556
"99624",Santa Rosalía - Vichada,,Santa Rosalía,99,Vichada,5.1261111,-70.8758333
